stop_id,stop_name,stop_desc,stop_lat,stop_lon,location_type,GrupoLatitude,GrupoLongitude,idModalSmtr,IDCorredor,IDTipoParada,IDTipoSentido,IDPropriedadeParada,Seletivado,BRS,IDTipoSinalizacao,IDConservacaoSinalizacao,IDTipoAbrigo,ConservacaoAbrigo,IDTipoAssento,IDTipoBaia,QualidadePavimento,IDTipoCalcada,IDLixeiras,IDRampa,braile,piso_tatil,elevador,n_vagas,n_cabines,AP,RA,Bairro,Observacoes,Foto,dataAtualizacao,endereco
100002,Caju,,-22.87776,-43.21607,0
100003,R. Augusto de Vasconcelos próximo ao 448,,-22.90623,-43.56257,0
100004,R. Padre Manuel da Nóbrega próximo ao 885,,-22.87837,-43.31538,0
100005,Estrada da Gávea próximo ao 376,,-22.98772,-43.24595,0
100007,Estrada da Gávea próximo ao 307A,,-22.98712,-43.24641,0
100009,Estrada da Gávea próximo ao 224-230,,-22.98638,-43.24546,0
100010,Estrada da Gávea próximo ao 194-200,,-22.98582,-43.2434,0
100011,Estrada da Gávea próximo ao 169,,-22.98529,-43.24464,0
100013,Estrada da Gávea próximo ao 74,,-22.98462,-43.24319,0
100015,Estrada da Gávea próximo ao 102-138,,-22.9845,-43.24451,0
100017,Estrada da Gávea próximo ao 193-199,,-22.98595,-43.24342,0
100019,Estrada da Gávea próximo ao 303,,-22.9865,-43.2473,0
100021,Estrada da Gávea próximo ao 367,,-22.98784,-43.24509,0
100025,Terminal Castelo,,-22.90907,-43.17118,1
100027,Avenida Cesário de Melo próximo ao 2862-2886,,-22.90596,-43.55981,0
100029,Estrada do Furado,,-22.9054,-43.64937,0
100031,Ponto Terminal Praça da Bandeira,,-22.91148,-43.2121,0
100032,BRS 4 - Rua Frei Caneca, lado oposto ao 31,,-22.90857,-43.18747,0
100033,Ponto Terminal da Praça da República próximo ao 111-113,,-22.90789,-43.18972,0
100034,BRS 2-4 - Terminal Procópio Ferreira,,-22.9052051867811,-43.1924376074791,0
100035,BRS 4 - Avenida Presidente Vargas próximo ao 2560,,-22.907698467863696,-43.20019177909852,0
100036,BRS 2-4 - Avenida Presidente Vargas acesso ao metrô Cidade Nova,,-22.909545880884014,-43.20607638525008,0
100037,Avenida Francisco Bicalho próximo ao 5044-5170,,-22.90861,-43.20924,0
100038,Avenida Francisco Bicalho próximo ao 4920-5018,,-22.9072,-43.20933,0
100039,Rua Figueira de Melo próximo ao 258,,-22.90417,-43.21493,0
100040,Rua Figueira de Melo próximo ao 356,,-22.90185,-43.21645,0
100041,Rua São Cristóvão próximo ao 814,,-22.90077,-43.2164,0
100042,Rua Escobar próximo ao 50A,,-22.8993,-43.21664,0
100043,Rua Bela próximo ao 66,,-22.89585,-43.21893,0
100044,Campo de São Cristóvão próximo ao 300,,-22.89739,-43.22217,0
100045,Campo de São Cristóvão próximo ao 424,,-22.8993,-43.22303,0
100046,Rua São Luiz Gonzaga próximo ao 126,,-22.90004,-43.22381,0
100048,Rua São Luiz Gonzaga próximo ao 730,,-22.90000,-43.22971,0
100049,Rua São Luiz Gonzaga próximo ao 1064,,-22.90045,-43.23258,0
100050,Rua São Luiz Gonzaga próximo ao 1456-1462,,-22.89888,-43.2359,0
100051,Rua São Luiz Gonzaga próximo ao 1668-1700,,-22.89748,-43.23673,0
100052,Rua São Luiz Gonzaga próximo ao 1813-1857,,-22.89618,-43.23688,0
100053,Rua São Luiz Gonzaga próximo ao 2084,,-22.89443,-43.23866,0
100054,Avenida Dom Hélder Câmara próximo ao 82,,-22.89149,-43.24067,0
100055,Avenida Dom Hélder Câmara próximo ao 186-312,,-22.89067,-43.24193,0
100056,Avenida Dom Hélder Câmara próximo ao 56,,-22.88967,-43.24362,0
100057,Avenida Dom Hélder Câmara próximo ao 1060,,-22.88654,-43.25106,0
100058,Avenida Dom Hélder Câmara próximo ao 1462-1606,,-22.88533,-43.25221,0
100059,Avenida dos Democráticos próximo ao 31-01,,-22.8834,-43.25341,0
100060,Avenida dos Democráticos próximo ao 132-144,,-22.88017,-43.25363,0
100061,Avenida dos Democráticos próximo ao 596,,-22.87843,-43.25517,0
100064,Avenida dos Democráticos próximo ao 1580,,-22.87029,-43.25836,0
100065,Avenida dos Democráticos próximo ao 1757,,-22.86866,-43.25824,0
100066,Ponto Final - Avenida Itaóca próximo ao 138,,-22.86771,-43.25682,0
100067,Estação  de trem Bonsucesso,,-22.86752,-43.25547,0
100068,Rua Uranos lado oposto ao  629,,-22.86306,-43.25694,0
100069,Rua Uranos próximo ao 689,,-22.86174,-43.25739,0
100070,Rua Uranos lado oposto ao 797,,-22.85934,-43.25819,0
100071,Estação de trem Ramos,,-22.85572,-43.25968,0
100072,Rua Vassalo Caruso próximo ao 55-99,,-22.85369,-43.26143,0
100073,Rua Diomedes Trota 84,,-22.85329,-43.26377,0
100074,Cacique de Ramos,,-22.84999,-43.26534,0
100075,Rua Doutor Alfredo Barcelos próximo ao 734,,-22.84849,-43.26623,0
100076,Rua Delfim Carlos próximo ao 214,,-22.84828,-43.2692,0
100077,Rua Delfim Carlos próximo ao 350-456,,-22.84965,-43.27158,0
100079,Rua Paranapanema próximo ao 966,,-22.84899,-43.27283,0
100080,Rua Paranapanema próximo ao 1108,,-22.84826,-43.27365,0
100081,Rua Ministro Moreira de Abreu próximo ao 136-138,,-22.84855,-43.2747,0
100082,Rua Ministro Moreira de Abreu próximo ao 178,,-22.84918,-43.27553,0
100083,Rua Ministro Moreira de Abreu próximo ao 220,,-22.84974,-43.27627,0
100085,Estrada José Rucas próximo ao 1465-1499,,-22.84885,-43.27976,0
100086,Estrada José Rucas próximo ao 1202-1326,,-22.84853,-43.28204,0
100087,Estrada José Rucas próximo ao 1089-1099,,-22.84772,-43.2839,0
100088,Estrada José Rucas próximo ao 812,,-22.84572,-43.28554,0
100090,Estrada do Mato Alto próximo ao 2280-2300,,-22.95234,-43.57687,0
100091,Estrada do Mato Alto próximo ao 1371-1519,,-22.94472,-43.5767,0
100092,Estrada do Mato Alto próximo ao 1250-1266,,-22.94333,-43.57615,0
100093,Estrada do Mato Alto próximo ao 1074-1184,,-22.94236,-43.57583,0
100094,Estrada do Mato Alto próximo ao 360,,-22.93853,-43.57659,0
100095,Estrada do Monteiro próximo ao 1297-1299,,-22.92921,-43.57371,0
100096,Estrada do Monteiro próximo ao 1295,,-22.92867,-43.57337,0
100098,Estrada do Monteiro próximo ao 1076-1080,,-22.92686,-43.57192,0
100100,Estrada do Monteiro próximo ao 964,,-22.92512,-43.5702,0
100101,Estrada do Monteiro próximo ao 930-942,,-22.9248,-43.56966,0
100102,Estrada do Monteiro próximo ao 887,,-22.92406,-43.56841,0
100103,Estrada do Monteiro próximo ao 703-731,,-22.92359,-43.56657,0
100104,Estrada do Monteiro próximo ao 691-701,,-22.9232,-43.56551,0
100105,Estrada do Monteiro próximo ao 615-651,,-22.92179,-43.56375,0
100106,Estrada do Monteiro próximo ao 509,,-22.91879,-43.56325,0
100107,Rua Olinda Ellis próximo ao 125,,-22.90954,-43.55935,0
100108,Rua Olinda Ellis próximo ao 11-09,,-22.90672,-43.56079,0
100109,Condomínio do Shopping Campo Grande,,-22.90661,-43.56071,0
100110,Avenida Cesário de Melo próximo ao 2706-2778,,-22.90569,-43.55902,0
100111,Avenida Cesário de Melo próximo ao 2580,,-22.90515,-43.55718,0
100112,Rua Aurélio de Figueiredo próximo ao 114-330,,-22.90432,-43.55658,0
100113,Rua Aurélio de Figueiredo próximo ao 15,,-22.90197,-43.55628,0
100115,Estrada Intendente Magalhães próximo ao 90,,-22.88312,-43.34393,0
100116,Estrada Intendente Magalhães próximo ao 25-65,,-22.88308,-43.34327,0
100117,Avenida Ernani Cardoso, 385,,-22.88283,-43.34025,0
100118,Rua Padre Manso, 90,,-22.880477941172064,-43.33737731779099,0
100120,Avenida Ministro Edgard Romero próximo ao 239,,-22.87163,-43.33592,0
100121,Avenida Ministro Edgard Romero próximo ao 323,,-22.86851,-43.33486,0
100122,Avenida Ministro Edgard Romero próximo ao 485-495,,-22.8652,-43.33391,0
100123,Avenida Ministro Edgard Romero próximo ao 608,,-22.86369,-43.33263,0
100124,Avenida Ministro Edgard Romero próximo ao 804,,-22.86042,-43.32962,0
100126,Avenida Monsenhor Félix próximo ao 57,,-22.85533,-43.32917,0
100127,Avenida Monsenhor Félix próximo ao 192,,-22.85247,-43.32822,0
100128,Avenida Monsenhor Félix próximo ao 326-340,,-22.85044,-43.32597,0
100131,Praça Caraguata próximo ao 43-69,,-22.84373,-43.32262,0
100132,Estrada Padre Roser próximo ao 856,,-22.8424,-43.32092,0
100133,Estrada Padre Roser próximo ao 620-660,,-22.8417,-43.31849,0
100134,Estrada Padre Roser próximo ao 388,,-22.84138,-43.31662,0
100135,Estrada Padre Roser próximo ao 293,,-22.84097,-43.31536,0
100136,Avenida Meriti próximo ao 2486-2490,,-22.8385,-43.31062,0
100137,Avenida Meriti próximo ao 2642,,-22.83735,-43.30945,0
100138,Estrada do Quitungo próximo ao 1729,,-22.8361,-43.30624,0
100139,Estrada do Quitungo próximo ao 1501,,-22.83531,-43.30398,0
100140,Igreja de Santo Antônio,,-22.83435,-43.30271,0
100142,Estrada do Quitungo próximo ao 795,,-22.83006,-43.30153,0
100143,Colégio Estadual Prof. José de Souza Marques,,-22.82895,-43.29993,0
100144,Estrada do Quitungo próximo ao 411,,-22.82813,-43.29863,0
100145,Estrada do Quitungo próximo ao 87,,-22.82684,-43.29564,0
100146,Rua Itabira próximo ao 685,,-22.82632,-43.29506,0
100147,Rua Itabira próximo ao 855,,-22.82381,-43.29609,0
100149,Rua Bulhões Marcial próximo ao 564-634,,-22.81902,-43.29976,0
100150,Rua Bulhões Marcial próximo ao 380-414,,-22.81668,-43.30091,0
100151,Rua Bulhões Marcial próximo ao 472-540,,-22.81348,-43.30113,0
100152,Rua Bulhões Marcial próximo ao 664-692,,-22.81,-43.30168,0
100153,Rua Bulhões Marcial próximo ao 574-830,,-22.80787,-43.30395,0
100154,Estrada do Vigário Geral próximo ao 1366-1380,,-22.81234,-43.30927,0
100155,Estrada do Vigário Geral próximo ao 909,,-22.81517,-43.31049,0
100156,Estrada do Vigário Geral próximo ao 441-539,,-22.81744,-43.31442,0
100157,Rua Marechal Antônio Sousa próximo ao 32,,-22.81814,-43.31655,0
100158,Rua Marechal Antônio Sousa próximo ao 182,,-22.81689,-43.31715,0
100159,Rua Marechal Antônio Sousa próximo ao 452,,-22.81417,-43.31822,0
100160,Rua Marechal Antônio Sousa próximo ao 932,,-22.81103,-43.31895,0
100161,Rua Jornalista Geraldo Rocha próximo ao 615,,-22.81131,-43.32066,0
100162,Rua Franz Liszt próximo ao 603,,-22.80973,-43.32115,0
100163,Rua Franz Liszt próximo ao 375-549,,-22.80772,-43.32162,0
100164,Terminal Procópio Ferreira próximo ao 125,,-22.90493,-43.19246,0
100165,Ponto Terminal da Condomínio Edifício Banco Mercantil de São Paulo,,-22.90145,-43.17929,0
100166,Avenida General Justo próximo ao 399-435,,-22.90737,-43.16868,0
100167,Avenida General Justo próximo ao 13,,-22.90957,-43.16843,0
100168,Condomínio do Edifício Ypiranga,,-22.90949,-43.1703,0
100169,Avenida Presidente Wilson próximo ao 194,,-22.91047,-43.17254,0
100170,Avenida Presidente Wilson próximo ao 113,,-22.91252,-43.17439,0
100171,Avenida Augusto Severo,,-22.91622,-43.17636,0
100173,Praça Luiz de Camões próximo ao 2680-2840,,-22.92115,-43.1738,0
100174,Praia do Flamengo próximo ao 2842-3310,,-22.92276,-43.1725,0
100177,Praia do Flamengo próximo ao 132,,-22.92935,-43.17417,0
100178,Praia do Flamengo próximo ao 194,,-22.93177,-43.17447,0
100179,Praia do Flamengo próximo ao 238,,-22.9338,-43.17453,0
100181,Praia do Flamengo próximo ao 344,,-22.93643,-43.1741,0
100182,Avenida Oswaldo Cruz próximo ao 86-92,,-22.9396,-43.17493,0
100183,Avenida Oswaldo Cruz próximo ao 72,,-22.94058,-43.17613,0
100186,BRS 1 - Praia de Botafogo 316,,-22.945197908645124,-43.18249142824174,0
100188,BRS 1-2 - Praia de Botafogo 370,,-22.947373377257264,-43.182627550926206,0
100189,BRS 1-I - Rua São Clemente 30,,-22.949174458479412,-43.18388839517593,0
100190,BRS 1-2-3-I - Rua São Clemente 172,,-22.949432710628255,-43.18807530555725,0
100191,BRS 1-2-3 - Rua São Clemente 254,,-22.94985614373092,-43.190623499336255,0
100192,BRS 1-I - Rua São Clemente 340,,-22.950602590333048,-43.19319927116394,0
100193,Rua Real Grandeza próximo ao 79,,-22.95296,-43.19353,0
100194,Rua Real Grandeza próximo ao 233-239,,-22.95633,-43.19216,0
100195,Rua Real Grandeza próximo ao 275,,-22.95714,-43.19184,0
100196,Rua Real Grandeza próximo ao 352,,-22.95869,-43.19132,0
100197,Rua Tonelero próximo ao 295,,-22.96929,-43.18998,0
100199,BRS 2 - Rua Raul Pompéia lado oposto ao número 180,,-22.98299372391877,-43.1920714871025,0
100200,BRS 1 - Avenida Rainha Elisabeth 416,,-22.985641845143032,-43.19354868947982,0
100202,BRS 1-3- Rua Prudente de Morais 302,,-22.985532232770435,-43.19968966068267,0
100203,BRS 1-3- Rua Prudente de Morais 1440,,-22.984954692617553,-43.21077370304108,0
100205,BRS 1-3-5 - Avenida Presidente Vargas 2000,,-22.905618242647673,-43.193687899475094,0
100208,Avenida Francisco Bicalho próximo ao 4580-4708,,-22.90379,-43.20955,0
100209,Rodovia Governador Mário Covas próximo ao 88,,-22.82931,-43.34673,0
100210,Rodovia Governador Mário Covas próximo ao 1138,,-22.83073,-43.35054,0
100211,Rodovia Governador Mário Covas próximo ao 20206-20410,,-22.83221,-43.35469,0
100212,Rodovia Governador Mário Covas próximo ao 21100-21174,,-22.83548,-43.36197,0
100213,Rodovia Governador Mário Covas próximo ao 300,,-22.83667,-43.36387,0
100214,Rodovia Governador Mário Covas próximo ao 22466,,-22.83941,-43.36856,0
100216,Rodovia Governador Mário Covas próximo ao 242,,-22.8425,-43.3736,0
100217,Rodovia Governador Mário Covas próximo ao 182-242,,-22.84404,-43.37606,0
100218,Rodovia Governador Mário Covas próximo ao 22502-22632,,-22.84923,-43.3838,0
100219,Rodovia Governador Mário Covas próximo ao 24526-24794,,-22.8531,-43.39406,0
100220,Rodovia Governador Mário Covas próximo ao 27188-27226,,-22.8621,-43.41192,0
100221,Rodovia Governador Mário Covas próximo ao 27482-27758,,-22.86418,-43.41768,0
100222,BR-101 próximo ao 28400,,-22.86517,-43.42199,0
100223,Avenida Brasil próximo ao 28798-28938,,-22.86502,-43.42724,0
100224,Rodovia Governador Mário Covas próximo ao 29468-29526,,-22.86418,-43.43292,0
100225,Rua Belém próximo ao 1123-1139,,-22.8637,-43.43564,0
100226,Rodovia Governador Mário Covas próximo ao 29614-29654,,-22.8634,-43.43716,0
100227,Rua Curitiba próximo ao 638-838,,-22.86288,-43.43985,0
100228,Rodovia Governador Mário Covas próximo ao 29732-29850,,-22.86207,-43.44451,0
100229,Rodovia Governador Mário Covas próximo ao 30002-30330,,-22.8617,-43.4466,0
100231,BR-101 próximo ao 3309,,-22.85966,-43.45774,0
100232,Avenida Brasil próximo ao 32400,,-22.85854,-43.464,0
100233,Avenida Brasil próximo ao 445,,-22.85756,-43.46843,0
100235,Rodovia Governador Mário Covas próximo ao 34720-34930,,-22.85523,-43.48228,0
100236,Rodovia Governador Mário Covas próximo ao 35726-36340,,-22.85477,-43.48713,0
100237,Rodovia Governador Mário Covas próximo ao 3131,,-22.8553,-43.49289,0
100238,Rodovia Governador Mário Covas próximo ao 1414,,-22.85681,-43.49683,0
100239,Avenida Brasil próximo ao 798,,-22.85784,-43.50002,0
100240,Avenida Brasil próximo ao 600,,-22.85973,-43.50672,0
100241,Rodovia Governador Mário Covas próximo ao 682,,-22.86043,-43.51346,0
100242,Rodovia Governador Mário Covas próximo ao 40118-40158,,-22.86029,-43.51637,0
100243,Rodovia Governador Mário Covas próximo ao 40244-40284,,-22.8602,-43.52061,0
100244,Rodovia Governador Mário Covas próximo ao 40672-40706,,-22.86078,-43.53327,0
100245,Rodovia Governador Mário Covas próximo ao 41064-41100,,-22.8614,-43.54424,0
100246,Rodovia Governador Mário Covas próximo ao 41412-41716,,-22.86174,-43.55078,0
100247,Rodovia Governador Mário Covas próximo ao 41988-42230,,-22.86192,-43.55404,0
100249,Rodovia Governador Mário Covas próximo ao 42812-42972,,-22.86342,-43.56356,0
100250,Avenida Brasil próximo ao 3303,,-22.86442,-43.56749,0
100251,Avenida Brasil próximo ao 44228,,-22.86527,-43.57422,0
100253,Rodovia Governador Mário Covas próximo ao 560,,-22.86603,-43.58416,0
100254,Rodovia Governador Mário Covas próximo ao 3500,,-22.86955,-43.59872,0
100255,Rodovia Governador Mário Covas próximo ao 47592,,-22.87471,-43.61094,0
100256,Avenida Brasil próximo ao 101,,-22.87755,-43.61697,0
100257,Rodovia Governador Mário Covas próximo ao 49552-49810,,-22.87903,-43.62301,0
100258,Rodovia Governador Mário Covas próximo ao 50060-50136,,-22.87982,-43.62769,0
100259,Rodovia Governador Mário Covas próximo ao 50482-50592,,-22.88076,-43.63313,0
100260,Avenida Brasil próximo ao 51100,,-22.88222,-43.63864,0
100261,Rodovia Governador Mário Covas próximo ao 51286-51322,,-22.88342,-43.64302,0
100262,Beco Isabel próximo ao 02-72,,-22.88823,-43.65889,0
100263,Rodovia Governador Mário Covas próximo ao 51836-51840,,-22.89136,-43.66898,0
100265,Avenida Padre Guilherme Decaminada próximo ao 1187-1667,,-22.89953,-43.67963,0
100266,Avenida Padre Guilherme Decaminada próximo ao 1003-1055,,-22.90288,-43.68222,0
100267,Avenida Padre Guilherme Decaminada próximo ao 1001,,-22.90357,-43.68256,0
100268,Avenida Padre Guilherme Decaminada próximo ao 463-659,,-22.90596,-43.6843,0
100269,Avenida Padre Guilherme Decaminada próximo ao 101-157,,-22.90873,-43.68634,0
100270,Avenida Padre Guilherme Decaminada próximo ao 29,,-22.91178,-43.68745,0
100271,Rua do Prado próximo ao 60,,-22.91329,-43.68714,0
100272,Rua Teresa Cristina próximo ao 47,,-22.91803,-43.68495,0
100273,Rua Lucindo Passos próximo ao 30,,-22.91977,-43.68316,0
100274,Rua Felipe Cardoso próximo ao 540-592,,-22.92036,-43.68145,0
100275,Rua Felipe Cardoso próximo ao 822-880,,-22.9222,-43.6798,0
100276,Rua Felipe Cardoso próximo ao 1128,,-22.92488,-43.67924,0
100277,Rua Felipe Cardoso próximo ao 1362-1424,,-22.92717,-43.67819,0
100278,Rua Felipe Cardoso próximo ao 1608-1660,,-22.92849,-43.67652,0
100279,Rua Felipe Cardoso próximo ao 1944-2014,,-22.93131,-43.67312,0
100280,Rua Felipe Cardoso próximo ao 2370,,-22.93264,-43.67124,0
100281,Rua Felipe Cardoso próximo ao 2728,,-22.9345,-43.66876,0
100282,Rua Felipe Cardoso próximo ao 2593,,-22.93437,-43.66861,0
100283,Rua Felipe Cardoso próximo ao 2187-2299,,-22.93245,-43.67117,0
100284,Rua Felipe Cardoso próximo ao 1831-1859,,-22.93085,-43.67325,0
100285,Rua Felipe Cardoso próximo ao 1743,,-22.92897,-43.67562,0
100286,Rua Felipe Cardoso próximo ao 1433-1445,,-22.92711,-43.67794,0
100287,Rua Felipe Cardoso próximo ao 1071-1161,,-22.924572133911553,-43.67906145767213,0
100288,Rua Felipe Cardoso próximo ao 929,,-22.92304,-43.67929,0
100289,Rua Severiano das Chagas próximo ao 1296,,-22.9183,-43.6801,0
100290,Rua Severiano das Chagas próximo ao 376,,-22.91734,-43.67972,0
100291,Rua Severiano das Chagas próximo ao 100,,-22.91552,-43.6799,0
100292,Rua Severiano das Chagas próximo ao 44,,-22.91412,-43.68006,0
100293,Rua Tonelero próximo ao 56-68,,-22.96493,-43.18197,0
100294,BRS 2 - Avenida Nossa Senhora de Copacabana 371,,-22.96725,-43.181,0
100296,Avenida Princesa Isabel próximo ao 190,,-22.96527,-43.17341,0
100297,Avenida Atlântica próximo ao 12-08,,-22.96381,-43.16995,0
100298,Avenida Atlântica próximo ao 828,,-22.96313,-43.16822,0
100300,Ponto Terminal da Praça Almirante Júlio de Noronha próximo ao 40,,-22.96199,-43.16533,0
100301,Rua Professor Rodolpho Paulo Rocco próximo ao 260-420,,-22.84224,-43.23652,0
100302,Avenida Carlos Chagas Filho,,-22.84406,-43.23563,0
100303,Praça Edson Abdalla Saad,,-22.84596,-43.23778,0
100304,Praça Edson Abdalla Saad - Prefeitura,,-22.8467,-43.23762,0
100305,Avenida Horácio Macedo próximo ao 3877-4119,,-22.85013,-43.23513,0
100306,Rua Lobo Carneiro próximo ao 434-454,,-22.85582,-43.23557,0
100307,Avenida Governador Carlos Lacerda próximo ao 575,,-22.86437,-43.23951,0
100308,Avenida Bento Ribeiro Dantas próximo ao 2-162,,-22.8679,-43.24136,0
100309,Avenida Governador Carlos Lacerda próximo ao 391,,-22.87178,-43.24924,0
100310,Avenida Novo Rio próximo ao 132,,-22.87097,-43.25893,0
100311,Avenida Automóvel Clube próximo ao 98,,-22.87933,-43.27221,0
100312,Ponto Final - Avenida Automóvel Clube próximo ao 126,,-22.87997,-43.26979,0
100314,Rua Guassupi próximo ao 220-302,,-22.8315,-43.34781,0
100315,Rua Cajurana próximo ao 153-173,,-22.83062,-43.34832,0
100316,Avenida Brasil próximo ao 19852-19982,,-22.83074,-43.3509,0
100317,Avenida Brasil próximo ao 433,,-22.83931,-43.36842,0
100318,Avenida Brasil próximo ao 22136-22290,,-22.84125,-43.37149,0
100319,Avenida Brasil próximo ao 22292-22378,,-22.84255,-43.3737,0
100320,Avenida Brasil próximo ao 22470,,-22.84396,-43.37598,0
100321,Avenida Brasil próximo ao 22474,,-22.84443,-43.37675,0
100322,Avenida Brasil próximo ao 2024-22484,,-22.84576,-43.37889,0
100323,Avenida Brasil próximo ao 23618-23662,,-22.84788,-43.38225,0
100326,Estrada do Campinho próximo ao 6491,,-22.8844,-43.62285,0
100327,Estrada do Campinho próximo ao 6063,,-22.88548,-43.61887,0
100328,Estrada do Campinho próximo ao 5411-5449,,-22.88607,-43.61333,0
100329,Estrada do Campinho próximo ao 5045,,-22.88545,-43.60997,0
100330,Estrada do Campinho próximo ao 4548,,-22.88619,-43.60522,0
100331,Estrada do Encanamento próximo ao 1345,,-22.88736,-43.60541,0
100332,Estrada do Encanamento próximo ao 967-999,,-22.88983,-43.60739,0
100334,Estrada do Encanamento próximo ao 315-329,,-22.89454,-43.61114,0
100335,Estrada do Encanamento próximo ao 131,,-22.89622,-43.61248,0
100337,Estrada de Paciência próximo ao 85-101,,-22.90063,-43.61252,0
100339,Estrada de Paciência próximo ao 4156-4220,,-22.90505,-43.6174,0
100340,Estrada de Paciência próximo ao 4470-4486,,-22.90611,-43.61957,0
100341,Estrada de Paciência próximo ao 4732-4886,,-22.90798,-43.6216,0
100345,Estrada de Paciência próximo ao 6377-6395,,-22.91401,-43.6296,0
100346,Avenida Cesário de Melo próximo ao 11294,,-22.9186,-43.63993,0
100347,Avenida Cesário de Melo próximo ao 11588-11692,,-22.92033,-43.64367,0
100348,Avenida Cesário de Melo próximo ao 12120,,-22.92303,-43.64822,0
100349,Avenida Antares próximo ao 182,,-22.92337,-43.64923,0
100350,Avenida Antares próximo ao 202-214,,-22.9231,-43.6516,0
100351,Avenida Antares próximo ao 846-890,,-22.9225,-43.65681,0
100353,Avenida Antares próximo ao 1496-2010,,-22.92176,-43.663,0
100354,Avenida Antares próximo ao 2216-2290,,-22.92174,-43.66917,0
100355,Avenida Antares próximo ao 2392-2438,,-22.92234,-43.67178,0
100356,Rua Doutor Continentino próximo ao 756-792,,-22.92304,-43.67822,0
100357,Estrada dos Bandeirantes próximo ao 8283-8311,,-22.97495,-43.41471,0
100358,Estrada dos Bandeirantes próximo ao 8315-8321,,-22.97229,-43.41391,0
100359,Estrada dos Bandeirantes próximo ao 7931,,-22.96904,-43.41349,0
100360,Estrada dos Bandeirantes próximo ao 7751,,-22.96662,-43.41198,0
100361,Estrada dos Bandeirantes próximo ao 7256-7258,,-22.96565,-43.4092,0
100362,Estrada dos Bandeirantes próximo ao 7052,,-22.96493,-43.40678,0
100363,Estrada dos Bandeirantes próximo ao 6585-6615,,-22.9635,-43.40364,0
100364,Estrada dos Bandeirantes próximo ao 6533,,-22.96327,-43.40271,0
100365,Estrada dos Bandeirantes próximo ao 6313-6335,,-22.9629,-43.40115,0
100366,Estrada dos Bandeirantes próximo ao 5639-5801,,-22.96211,-43.39785,0
100367,Estrada dos Bandeirantes próximo ao 5555,,-22.96151,-43.39539,0
100368,Estrada dos Bandeirantes próximo ao 5453-5541,,-22.96105,-43.39347,0
100369,Estrada dos Bandeirantes próximo ao 5407-5451,,-22.96073,-43.39257,0
100370,Estrada dos Bandeirantes próximo ao 5221-5247,,-22.96043,-43.39016,0
100371,Estrada dos Bandeirantes próximo ao 4731-4879,,-22.95979,-43.38755,0
100372,Estrada dos Bandeirantes próximo ao 4649-4665,,-22.95881,-43.38333,0
100373,Estrada dos Bandeirantes próximo ao 4019,,-22.95727,-43.37976,0
100374,Estrada dos Bandeirantes próximo ao 3917-3961,,-22.95563,-43.3776,0
100375,Estrada dos Bandeirantes próximo ao 3829-3915,,-22.95478,-43.37647,0
100376,Estrada dos Bandeirantes próximo ao 3329,,-22.95235,-43.37444,0
100377,Estrada dos Bandeirantes próximo ao 2729-2779,,-22.94852,-43.37234,0
100378,Estrada dos Bandeirantes próximo ao 2629,,-22.94747,-43.37197,0
100379,Estrada dos Bandeirantes próximo ao 2179,,-22.94461,-43.37196,0
100380,Estrada dos Bandeirantes próximo ao 1985,,-22.94197,-43.37225,0
100381,Estrada dos Bandeirantes próximo ao 1873,,-22.9406,-43.3723,0
100382,Estrada dos Bandeirantes próximo ao 1613-1743,,-22.93868,-43.37209,0
100383,Estrada Marechal Miguel Salazar Mendes de Moraes próximo ao 128,,-22.93722,-43.37038,0
100384,Estrada Marechal Miguel Salazar Mendes de Moraes próximo ao 595-649,,-22.9404,-43.36821,0
100385,Estrada Marechal Miguel Salazar Mendes de Moraes próximo ao 944,,-22.9431,-43.36607,0
100386,Estrada Marechal Miguel Salazar Mendes de Moraes próximo ao 946-998,,-22.94377,-43.3659,0
100387,Estrada Marechal Miguel Salazar Mendes de Moraes próximo ao 1421-1483,,-22.94607,-43.36258,0
100388,Rua Edgard Werneck próximo ao 1581,,-22.94891,-43.35977,0
100389,Travessa Zereda próximo ao 1,,-22.95196,-43.35825,0
100390,Avenida Tenente Coronel Muniz de Aragão próximo ao 2402-2412,,-22.95516,-43.3542,0
100392,Avenida Tenente Coronel Muniz de Aragão próximo ao 1518,,-22.9582,-43.352,0
100395,Estrada do Engenho DAgua próximo ao 1248,,-22.95635,-43.34713,0
100397,Estrada do Engenho DAgua próximo ao 712,,-22.95773,-43.34248,0
100399,Estrada do Engenho DAgua próximo ao 306-382,,-22.95597,-43.34076,0
100400,Estrada do Engenho DAgua próximo ao 180,,-22.95529,-43.33913,0
100401,Estrada do Engenho DAgua próximo ao 18-12,,-22.95519,-43.33801,0
100402,Estrada de Jacarepaguá próximo ao 6211-6237,,-22.95468,-43.33739,0
100403,Estrada de Jacarepaguá próximo ao 6416-6464,,-22.95289,-43.3381,0
100405,Rua Ituverava próximo ao 317,,-22.94621,-43.3368,0
100406,Rua Ituverava próximo ao 643-651,,-22.94425,-43.33463,0
100407,Rua Ituverava próximo ao 787-799,,-22.94382,-43.33325,0
100408,Rua Ituverava próximo ao 865,,-22.94353,-43.33236,0
100409,Rua Ituverava próximo ao 927,,-22.9433,-43.33168,0
100410,Estrada do Bananal próximo ao 1061,,-22.94279,-43.33161,0
100411,Estrada do Bananal próximo ao 427,,-22.93765,-43.33287,0
100412,Estrada dos Três Rios próximo ao 1173-1245,,-22.93629,-43.3327,0
100413,Rua Rio do Caçambé próximo ao 32,,-22.93524,-43.32992,0
100414,Estrada dos Três Rios próximo ao 1787,,-22.93356,-43.32783,0
100415,Estrada dos Três Rios próximo ao 2021-2073,,-22.93142,-43.32531,0
100416,Estrada dos Três Rios próximo ao 2289-2395,,-22.93051,-43.32269,0
100417,Estrada dos Três Rios próximo ao 2653-2733,,-22.92864,-43.31906,0
100418,Estrada dos Três Rios próximo ao 3354-3360,,-22.92562,-43.31483,0
100419,AutoEstrada Grajaú - Jacarepaguá próximo ao 4582-4756,,-22.92461,-43.29185,0
100421,AutoEstrada Grajaú - Jacarepaguá próximo ao 3781,,-22.92431,-43.28352,0
100422,AutoEstrada Grajaú - Jacarepaguá próximo ao 3061-3145,,-22.92274,-43.28234,0
100423,AutoEstrada Grajaú - Jacarepaguá próximo ao 1455-3059,,-22.91768,-43.28233,0
100424,Avenida Menezes Cortes próximo ao 955,,-22.91731,-43.27897,0
100428,AutoEstrada Grajaú - Jacarepaguá próximo ao 566-588,,-22.91569,-43.26731,0
100429,Rua José do Patrocínio próximo ao 240,,-22.91824,-43.26305,0
100430,Rua José do Patrocínio próximo ao 13,,-22.91927,-43.26217,0
100431,Ponto Terminal da Rua Barão do Bom Retiro próximo ao 2217-2223,,-22.91972,-43.26117,0
100432,BRS 2-6-7 - Rua Teodoro da Silva próximo ao 953,,-22.920007884190465,-43.25830125396729,0
100433,BRS 2-6-7 - Rua Teodoro da Silva próximo ao 821,,-22.919389001104673,-43.2550438196087,0
100434,BRS 4-5-I - Rua Teodoro da Silva próximo ao 785,,-22.919244940922244,-43.25419221593856,0
100435,BRS 2-6-7 - Rua Teodoro da Silva próximo ao 701,,-22.91891,-43.25258,0
100438,BRS 4-5-I - Rua Teodoro da Silva próximo ao 327,,-22.91722,-43.24318,0
100439,BRS 2-6-7 - Rua Teodoro da Silva próximo ao 295,,-22.917071408557202,-43.24241014484406,0
100440,Rua Dona Zulmira próximo ao 11,,-22.91442,-43.23352,0
100441,Rua São Francisco Xavier próximo ao 378-384,,-22.91533,-43.2325,0
100442,Avenida Maracanã próximo ao 471,,-22.91557,-43.22899,0
100443,Avenida Maracanã próximo ao 329,,-22.91324,-43.22699,0
100444,Avenida Maracanã próximo ao 229,,-22.91146,-43.22476,0
100445,Avenida Radial Oeste próximo ao 393-575,,-22.9108,-43.21823,0
100446,Rua Teixeira Soares próximo ao 71-191,,-22.91144,-43.21431,0
100447,BRS 1-3-5 - Avenida Presidente Vargas 770,,-22.91021,-43.20545,0
100448,BRS 4-5 - Avenida Presidente Vargas lado oposto ao número 2560,,-22.90788,-43.19828,0
100449,BRS 4-5 - Avenida Presidente Vargas em frente ao EDI Raquel de Queiroz,,-22.906737646555328,-43.19482271163941,0
100450,BRS 5 - Avenida Presidente Vargas 1733,,-22.90564,-43.19169,0
100451,Avenida República do Paraguai próximo ao 174-228,,-22.90876,-43.18053,0
100452,BRS 1-2 - Avenida República do Chile em frente ao 06,,-22.90835050030396,-43.17733017485143,0
100453,Rua Santa Luzia próximo ao 551,,-22.91036,-43.17345,0
100454,BRS 1-2-3 - Avenida Presidente Antônio Carlos oposto ao 251,,-22.90829,-43.17236,0
100457,Avenida Rio de Janeiro próximo ao 535,,-22.8909,-43.21506,0
100458,Rua Vereador Odilon Braga próximo ao 13,,-22.8886,-43.21989,0
100459,Avenida Brasil próximo ao 1940,,-22.88706,-43.22391,0
100460,Avenida Brasil próximo ao 2148-2238,,-22.88464,-43.2265,0
100461,Avenida Brasil próximo ao 2486-2492,,-22.88545,-43.22909,0
100462,Avenida Brasil próximo ao 2882-3040,,-22.88603,-43.23401,0
100463,Avenida Brasil próximo ao 3068-3290,,-22.88387,-43.23604,0
100464,Avenida Brasil próximo ao 3422-3586,,-22.88117,-43.23848,0
100465,Avenida Brasil próximo ao 4036,,-22.87742,-43.24107,0
100466,Avenida Brasil próximo ao 5000,,-22.87503,-43.24261,0
100467,Avenida Brasil próximo ao 77,,-22.8646,-43.24762,0
100468,Avenida Brasil próximo ao 5810,,-22.86159,-43.24754,0
100469,Avenida Brasil próximo ao 6730-6752,,-22.85692,-43.24744,0
100470,Avenida Brasil próximo ao 6822-6836,,-22.85367,-43.24732,0
100471,Rodovia Governador Mário Covas próximo ao 53,,-22.85187,-43.24725,0
100472,Avenida Brasil próximo ao 298,,-22.84659,-43.24748,0
100473,Avenida Brasil próximo ao 10,,-22.84303,-43.25054,0
100474,Avenida Brasil próximo ao 8548-8550,,-22.83986,-43.25341,0
100475,Avenida Brasil próximo ao 9020,,-22.83677,-43.25775,0
100476,Avenida Brasil próximo ao 424,,-22.83463,-43.26175,0
100477,Avenida Brasil próximo ao 386,,-22.83211,-43.26643,0
100478,Avenida Brasil próximo ao 6070,,-22.82997,-43.27017,0
100479,Avenida Brasil próximo ao 766,,-22.82591,-43.27531,0
100480,Avenida Brasil próximo ao 127,,-22.82179,-43.28066,0
100481,Avenida Brasil próximo ao 2900,,-22.81992,-43.28304,0
100482,Avenida Brasil próximo ao 715,,-22.81527,-43.28967,0
100483,Avenida Brasil próximo ao 108,,-22.81425,-43.29365,0
100484,Avenida Brasil próximo ao 13768,,-22.8142,-43.29637,0
100485,Avenida Brasil próximo ao 14984,,-22.81709,-43.30699,0
100486,Avenida Brasil próximo ao 15046-15144,,-22.81769,-43.30803,0
100487,Avenida Brasil próximo ao 15726,,-22.8192,-43.31062,0
100488,Avenida Brasil próximo ao 16140-16190,,-22.81959,-43.31449,0
100489,Avenida Brasil próximo ao 16210-16342,,-22.81958,-43.31658,0
100490,Avenida Brasil próximo ao 13760,,-22.82135,-43.32419,0
100491,Avenida Brasil próximo ao 539,,-22.82214,-43.32672,0
100492,Avenida Brasil próximo ao 17778,,-22.82379,-43.33177,0
100493,Avenida Brasil próximo ao 17926-17958,,-22.82463,-43.33428,0
100494,Avenida Brasil próximo ao 18028-18272,,-22.82532,-43.33625,0
100495,Estrada do Camboatá próximo ao 277-347,,-22.85086,-43.38424,0
100496,Estrada do Camboatá próximo ao 41-57,,-22.85334,-43.38482,0
100497,Viaduto de Deodoro próximo ao 110-214,,-22.85478,-43.38374,0
100498,Avenida Duque de Caxias próximo ao 236-302,,-22.85698,-43.38688,0
100499,Avenida Duque de Caxias próximo ao 600-782,,-22.85984,-43.39014,0
100500,Avenida Duque de Caxias próximo ao 1154-1282,,-22.86206,-43.39471,0
100501,Avenida Duque de Caxias próximo ao 1412-1546,,-22.86326,-43.3972,0
100502,Avenida Duque de Caxias próximo ao 1686-1816,,-22.86449,-43.39973,0
100503,Avenida Duque de Caxias próximo ao 2060-2160,,-22.86567,-43.40215,0
100504,Avenida Duque de Caxias próximo ao 2498-2640,,-22.86681,-43.40442,0
100505,Avenida Duque de Caxias próximo ao 2642-2804,,-22.86786,-43.40663,0
100506,Avenida Duque de Caxias próximo ao 2952-3048,,-22.86978,-43.41049,0
100507,Corredor Presidente Tancredo Neves próximo ao 374,,-22.86974,-43.41151,0
100508,Estrada General Canrobert da Costa próximo ao 1163,,-22.87139,-43.41494,0
100509,Estrada General Canrobert da Costa próximo ao 1001-1071,,-22.87246,-43.41634,0
100510,Estrada General Canrobert da Costa próximo ao 639,,-22.87465,-43.41906,0
100511,Rua Doutor Valdir de Azevedo Franco próximo ao 10-56,,-22.87675,-43.42352,0
100512,Rua Bernardo de Vasconcelos próximo ao 494-574,,-22.87644,-43.42696,0
100513,Rua Bernardo de Vasconcelos próximo ao 740-828,,-22.87629,-43.42894,0
100514,Rua Bernardo de Vasconcelos próximo ao 984-1082,,-22.87607,-43.4317,0
100515,Rua Bernardo de Vasconcelos próximo ao 1606-1688,,-22.87573,-43.43715,0
100516,Rua Bernardo de Vasconcelos próximo ao 1904,,-22.87554,-43.44002,0
100517,Rua Bernardo de Vasconcelos próximo ao 2142,,-22.87539,-43.44209,0
100518,Rua Bernardo de Vasconcelos próximo ao 2448,,-22.8752,-43.445,0
100519,Viaduto Deputado Waldemar Viana próximo ao 205-411,,-22.87519,-43.4469,0
100520,Rua Paulo Corrêa de Sá próximo ao 67-87,,-22.87609,-43.44828,0
100521,Avenida de Santa Cruz próximo ao 2804,,-22.87633,-43.44952,0
100522,Avenida de Santa Cruz próximo ao 2990,,-22.87616,-43.45135,0
100523,Avenida de Santa Cruz próximo ao 3246-3324,,-22.87634,-43.45408,0
100524,Avenida de Santa Cruz próximo ao 3644,,-22.87563,-43.45714,0
100525,Avenida de Santa Cruz próximo ao 4062-4168,,-22.8754,-43.46191,0
100526,Avenida de Santa Cruz próximo ao 4420-4464,,-22.87548,-43.46538,0
100527,Avenida de Santa Cruz próximo ao 4725,,-22.87555,-43.46818,0
100528,Rua dos Açudes próximo ao 340,,-22.87883,-43.46894,0
100529,Rua da Feira próximo ao 77,,-22.88019,-43.46742,0
100530,Avenida Cônego Vasconcelos próximo ao 461,,-22.88007,-43.46489,0
100531,Avenida Cônego de Vasconcelos próximo ao 776-856,,-22.88292,-43.46491,0
100532,Avenida Cônego de Vasconcelos próximo ao 992-1008,,-22.88488,-43.46486,0
100534,Rua Rio da Prata próximo ao 490,,-22.88582,-43.46661,0
100535,Rua Rio da Prata próximo ao 968,,-22.88599,-43.47198,0
100536,Rua Rio da Prata próximo ao 1180,,-22.88604,-43.47382,0
100538,Rua Rio da Prata próximo ao 1692,,-22.8862,-43.47895,0
100539,Rua Cairo próximo ao 3,,-22.8865,-43.48088,0
100540,Rua Cairo próximo ao 143-195,,-22.88788,-43.4805,0
100541,Rua Cairo próximo ao 261-295,,-22.88901,-43.48018,0
100542,Rua Paulo Rola próximo ao 248,,-22.89019,-43.48195,0
100544,Rua Marmiari próximo ao 2021-2039,,-22.89261,-43.48154,0
100545,Rua da Aclamação próximo ao 270,,-22.89378,-43.48361,0
100546,Rua Oscár Schade próximo ao 165,,-22.89558,-43.48657,0
100547,Avenida Paranapuã próximo ao 16,,-22.79366,-43.13000,0
100548,Avenida Paranapuã próximo ao 204,,-22.79444,-43.17126,0
100549,Avenida Paranapuã próximo ao 302-332,,-22.79449,-43.17392,0
100550,Avenida Paranapuã próximo ao 701-797,,-22.79437,-43.17693,0
100551,Avenida Paranapuã próximo ao 988-1086,,-22.79544,-43.17941,0
100552,Avenida Paranapuã próximo ao 1118-1120,,-22.79511,-43.18088,0
100553,Avenida Paranapuã próximo ao 1494,,-22.79628,-43.18371,0
100554,Avenida Paranapuã próximo ao 1887,,-22.79975,-43.18292,0
100555,Avenida Paranapuã próximo ao 2021-2065,,-22.80097,-43.1824,0
100556,Praia de olaria 577,,-22.80394,-43.18178,0
100557,Rua Tenente Cleto Campêlo próximo ao 585-607,,-22.80656,-43.18253,0
100558,Rua Tenente Cleto Campêlo próximo ao 278-284,,-22.80881,-43.18376,0
100559,Rua Tenente Cleto Campêlo próximo ao 31,,-22.81061,-43.18493,0
100560,Estrada da Cacuia próximo ao 419,,-22.81082,-43.18829,0
100561,Estrada da Cacuia próximo ao 141,,-22.81147,-43.19093,0
100562,Estrada do Galeão próximo ao 826,,-22.81144,-43.19284,0
100563,Avenida Coronel Luís Oliveira Sampaio próximo ao 988,,-22.81016,-43.19504,0
100564,Estrada do Galeão próximo ao 1324,,-22.80844,-43.19623,0
100565,Estrada do Galeão próximo ao 1490,,-22.80693,-43.1976,0
100566,Estrada do Galeão próximo ao 1770-1776,,-22.80604,-43.19953,0
100567,Estrada do Galeão próximo ao 2220,,-22.80376,-43.20419,0
100568,Estrada do Galeão próximo ao 2532-2700,,-22.80449,-43.2068,0
100569,Estrada do Galeão próximo ao 3100,,-22.80557,-43.21211,0
100572,Estrada do Galeão próximo ao 5096,,-22.81746,-43.22438,0
100573,Estrada do Galeão próximo ao 6008-6362,,-22.82156,-43.22894,0
100574,Estrada do Galeão próximo ao 8118-8196,,-22.82541,-43.23307,0
100576,Avenida Brigadeiro Trompowski próximo ao 770,,-22.83246,-43.24266,0
100577,Via Expressa Presidente João Goulart próximo ao 135,,-22.84446,-43.23994,0
100578,Avenida Horácio Macedo próximo ao 3113-3343,,-22.85308,-43.23297,0
100579,Avenida Horácio Macedo próximo ao 1751-2049,,-22.85733,-43.23048,0
100580,Avenida Athos da Silveira Ramos próximo ao 362-396,,-22.85799,-43.2312,0
100581,Avenida Horácio Macedo próximo ao 555-669,,-22.86102,-43.22723,0
100582,Avenida Pedro Calmon próximo ao 550,,-22.86181,-43.22424,0
100583,Avenida Pedro Calmon próximo ao 1606-2170,,-22.86006,-43.22141,0
100584,Avenida Pedro Calmon próximo ao 881-1315,,-22.85994,-43.22201,0
100585,Avenida Pedro Calmon próximo ao 443,,-22.86166,-43.22463,0
100586,Avenida Horácio Macedo próximo ao 664-780,,-22.86069,-43.22705,0
100587,Avenida Horácio Macedo próximo ao 3324-3734,,-22.85284,-43.23274,0
100588,Avenida Carlos Chagas Filho próximo ao 791,,-22.84307,-43.23341,0
100591,Campo de São Cristóvão próximo ao 707,,-22.89923,-43.22086,0
100592,Campo de São Cristóvão próximo ao 40,,-22.89848,-43.21927,0
100593,Rua Figueira de Melo próximo ao 358-366,,-22.90061,-43.21746,0
100594,Rua São Cristóvão próximo ao 535,,-22.9025,-43.21814,0
100595,Rua São Cristóvão próximo ao 320,,-22.90431,-43.21855,0
100596,Avenida Pedro II próximo ao 255,,-22.90411,-43.21611,0
100597,Avenida Pedro II próximo ao 170-194,,-22.90341,-43.21449,0
100598,Avenida Pedro II próximo ao 41-79,,-22.90248,-43.2121,0
100599,Avenida Francisco Bicalho próximo ao 504-686,,-22.90338,-43.21045,0
100600,Avenida Francisco Bicalho próximo ao 3066-3246,,-22.90617,-43.21025,0
100601,Avenida Francisco Bicalho próximo ao 2908-2978,,-22.90774,-43.21014,0
100602,Avenida Paulo de Frontin próximo ao 50-114,,-22.91359,-43.21027,0
100604,BRS 4-5-6-I - Rua Doutor Satamini oposto ao 208,,-22.916833705757625,-43.213901836805334,0
100605,Rua Campos Sales próximo ao 116-118,,-22.91684,-43.2179,0
100606,Rua Campos Sales próximo ao 170-176,,-22.91512,-43.2187,0
100607,Rua Mariz e Barros próximo ao 556,,-22.91448,-43.21955,0
100608,Rua Mariz e Barros próximo ao 678-724,,-22.91529,-43.22091,0
100609,Rua Mariz e Barros próximo ao 900-924,,-22.91657,-43.22248,0
100610,Rua Mariz e Barros próximo ao 950,,-22.91667,-43.22261,0
100611,Rua Almirante Cóchrane próximo ao 12,,-22.91844,-43.22488,0
100612,Rua Almirante Cóchrane próximo ao 18,,-22.91851,-43.22496,0
100613,Rua Almirante Cóchrane próximo ao 112-120,,-22.92034,-43.22725,0
100615,Rua Almirante Cóchrane próximo ao 166,,-22.92104,-43.22831,0
100616,Rua Almirante Cóchrane próximo ao 216,,-22.92174,-43.2297,0
100617,Rua Santo Afonso próximo ao 60,,-22.92259,-43.23193,0
100618,Rua Santo Afonso próximo ao 320,,-22.92357,-43.23384,0
100619,Rua Desembargador Izidro próximo ao 06-04,,-22.92564,-43.23274,0
100620,Ponto Terminal Rua Abelardo Chacrinha Barbosa próximo ao 75-117,,-22.92677,-43.23401,0
100621,Estrada Santa Eugênia próximo ao 1012,,-22.92588,-43.63508,0
100622,Estrada Santa Eugênia próximo ao 752,,-22.92337,-43.63462,0
100623,Estrada Santa Eugênia próximo ao 252-264,,-22.91914,-43.63387,0
100625,Avenida Cesário de Melo,,-22.91694,-43.63283,0
100626,Estrada de Paciência próximo ao 6474-6694,,-22.91603,-43.62906,0
100627,Avenida Cesário de Melo próximo ao 10233,,-22.91579,-43.62794,0
100628,Avenida Cesário de Melo próximo ao 9601,,-22.91642,-43.62226,0
100629,Avenida Cesário de Melo próximo ao 8961,,-22.91589,-43.61579,0
100630,Avenida Cesário de Melo próximo ao 8483,,-22.9163,-43.61137,0
100631,Avenida Cesário de Melo próximo ao 8121-8125,,-22.91598,-43.6081,0
100632,Avenida Cesário de Melo próximo ao 7675-7939,,-22.91495,-43.60492,0
100633,Avenida Cesário de Melo próximo ao 7427-7431,,-22.91433,-43.60095,0
100634,Avenida Cesário de Melo próximo ao 6851,,-22.91344,-43.59557,0
100635,Avenida Cesário de Melo próximo ao 6201-6271,,-22.91141,-43.58956,0
100636,Avenida Cesário de Melo próximo ao 1461,,-22.91088,-43.58382,0
100637,Corredor Transoeste próximo ao 1244,,-22.90964,-43.58022,0
100638,Avenida Cesário de Melo próximo ao 4555,,-22.90755,-43.57542,0
100639,Corredor Transoeste,,-22.90688,-43.5723,0
100640,Avenida Cesário de Melo próximo ao 4030,,-22.90721,-43.57058,0
100641,Avenida Cesário de Melo próximo ao 3752,,-22.90742,-43.56766,0
100642,Rua Ivo do Prado próximo ao 216,,-22.90104,-43.56497,0
100643,Rua Ivo do Prado próximo ao 02-60,,-22.90252,-43.56468,0
100644,Rua Campo Grande próximo ao 1214,,-22.90233,-43.56122,0
100645,Rua Campo Grande próximo ao 1110,,-22.90213,-43.5602,0
100646,Rua Campo Grande próximo ao 948,,-22.9018,-43.55855,0
100647,Rua Campo Grande próximo ao 810,,-22.90157,-43.55742,0
100648,Rua Campo Grande próximo ao 600,,-22.90121,-43.55555,0
100649,Rua Lucília próximo ao 181-187,,-22.89938,-43.55485,0
100650,Rua Lucília próximo ao 203,,-22.8989,-43.55485,0
100651,Estrada da Caroba próximo ao 938-1170,,-22.89735,-43.55692,0
100652,Estrada das Capoeiras próximo ao 262,,-22.89362,-43.5589,0
100653,Estrada das Capoeiras próximo ao 450,,-22.89185,-43.55925,0
100654,Estrada do Mendanha próximo ao 176,,-22.88815,-43.55956,0
100655,Estrada do Mendanha próximo ao 264-274,,-22.88632,-43.55838,0
100656,Estrada do Mendanha próximo ao 386-450,,-22.88567,-43.55736,0
100657,Estrada do Mendanha próximo ao 576,,-22.88472,-43.55683,0
100658,Estrada do Mendanha próximo ao 976,,-22.88161,-43.55597,0
100659,Estrada do Mendanha próximo ao 1152-1280,,-22.87897,-43.55464,0
100660,Estrada do Mendanha próximo ao 2046,,-22.87439,-43.55362,0
100661,Estrada do Mendanha próximo ao 2402-2598,,-22.86918,-43.5542,0
100662,Estrada do Mendanha próximo ao 3092-3272,,-22.8659,-43.55109,0
100663,Estrada do Mendanha próximo ao 3274-3452,,-22.8646,-43.54881,0
100664,Estrada do Mendanha próximo ao 3758-3764,,-22.86319,-43.54475,0
100665,Estrada do Mendanha próximo ao 4026-4112,,-22.86273,-43.54235,0
100666,Rodovia Governador Mário Covas próximo ao 40239-40249,,-22.86114,-43.53394,0
100667,Rodovia Governador Mário Covas próximo ao 40061-40099,,-22.86053,-43.52155,0
100668,Rodovia Governador Mário Covas próximo ao 39967,,-22.86071,-43.51377,0
100669,BR-101 próximo ao 600,,-22.8602,-43.50596,0
100672,Avenida Brasil próximo ao 807,,-22.85511,-43.48743,0
100673,Avenida Brasil próximo ao 159,,-22.85552,-43.48228,0
100674,Rodovia Governador Mário Covas próximo ao 1746,,-22.85647,-43.47702,0
100675,Rodovia Governador Mário Covas próximo ao 330,,-22.85762,-43.47251,0
100676,Rodovia Governador Mário Covas próximo ao 3239,,-22.85938,-43.46098,0
100677,Rodovia Governador Mário Covas próximo ao 4,,-22.86008,-43.45742,0
100678,Avenida Brasil próximo ao 1706-1720,,-22.8608,-43.45306,0
100679,Avenida Brasil próximo ao 1772-1820,,-22.86163,-43.44868,0
100680,Avenida Brasil próximo ao 39,,-22.86226,-43.44514,0
100681,Rodovia Governador Mário Covas próximo ao 29705-29731,,-22.86326,-43.43976,0
100682,Rodovia Governador Mário Covas próximo ao 29621-29643,,-22.8637,-43.43719,0
100683,Rodovia Governador Mário Covas próximo ao 29563-29599,,-22.86405,-43.43543,0
100684,Rodovia Governador Mário Covas próximo ao 29485-29497,,-22.86464,-43.43201,0
100685,Rodovia Governador Mário Covas próximo ao 28,,-22.86604,-43.42559,0
100686,Rodovia Governador Mário Covas próximo ao 27895-28779,,-22.86529,-43.42076,0
100687,Rodovia Governador Mário Covas próximo ao 26901-27039,,-22.86175,-43.41051,0
100688,Rodovia Governador Mário Covas próximo ao 25725-26199,,-22.85747,-43.40203,0
100689,Rodovia Governador Mário Covas próximo ao 386,,-22.85337,-43.39391,0
100690,Rodovia Governador Mário Covas próximo ao 204,,-22.85263,-43.39102,0
100691,Rodovia Governador Mário Covas próximo ao 67,,-22.84702,-43.37992,0
100692,Avenida Brasil próximo ao 67,,-22.84594,-43.37819,0
100695,Rodovia Governador Mário Covas próximo ao 1881,,-22.84171,-43.37129,0
100697,Avenida Brasil próximo ao 21255,,-22.83702,-43.3635,0
100698,Rodovia Governador Mário Covas próximo ao 20683-20721,,-22.83392,-43.35801,0
100699,Avenida Brasil próximo ao 20471,,-22.83312,-43.35604,0
100700,Rodovia Governador Mário Covas próximo ao 20257-20287,,-22.83264,-43.3546,0
100701,Avenida Brasil próximo ao 20001,,-22.83134,-43.35115,0
100702,Rodovia Governador Mário Covas próximo ao 1117,,-22.8298,-43.34712,0
100704,Avenida Brasil próximo ao 2043,,-22.82836,-43.34328,0
100705,Avenida Brasil próximo ao 18281-18481,,-22.82728,-43.34004,0
100706,Avenida Brasil próximo ao 25,,-22.89485,-43.21546,0
100707,Avenida Francisco Bicalho próximo ao 890,,-22.90035,-43.21061,0
100708,Avenida Francisco Bicalho próximo ao 2338-2580,,-22.90813,-43.20997,0
100710,BRS 4-5 - Hospital Escola São Francisco de Assis,,-22.90868,-43.20114,0
100711,BRS 5-I - Avenida Presidente Vargas em frente ao 1997 - Pista Central,,-22.90621,-43.19401,0
100713,BRS 1-4- Rua Visconde do Rio Branco oposto ao 21,,-22.907227560600674,-43.18273198222637,0
100714,BRS 1-2 - Rua Frei Caneca lado oposto ao 27,,-22.90837,-43.18675,0
100715,BRS 1-2-3 - Avenida Presidente 2000,,-22.905941289086993,-43.19410349933624,0
100717,BRS 1-2-3 - Avenida Presidente Vargas acesso ao metrô Cidade Nova,,-22.90978564607377,-43.20626979629516,0
100718,Praça da Bandeira próximo ao 179,,-22.91088,-43.21413,0
100719,Avenida Radial Oeste próximo ao 510-630,,-22.91039,-43.21526,0
100720,Rua Pará próximo ao 256,,-22.91149,-43.21752,0
100721,Rua Mariz e Barros próximo ao 318,,-22.9135,-43.21777,0
100723,Rua Conde de Bonfim próximo ao 412,,-22.92518,-43.23434,0
100724,Rua Conde de Bonfim próximo ao 452,,-22.92586,-43.23503,0
100725,Rua Conde de Bonfim próximo ao 494,,-22.92755,-43.23615,0
100726,Rua Conde de Bonfim próximo ao 522,,-22.92824,-43.23657,0
100727,Rua Conde de Bonfim próximo ao 550,,-22.92935,-43.2372,0
100728,Rua José Higino próximo ao 227,,-22.92908,-43.23908,0
100729,Rua José Higino próximo ao 149-165,,-22.92768,-43.23988,0
100730,Rua José Higino próximo ao 61,,-22.92552,-43.24023,0
100731,Rua Barão de Mesquita próximo ao 468,,-22.92404,-43.24128,0
100732,Rua Rocha Pombo próximo ao 11,,-22.92477,-43.2436,0
100733,Rua Uruguai próximo ao 160-162,,-22.92534,-43.24569,0
100734,Rua Uruguai próximo ao 91-95,,-22.92376,-43.24669,0
100735,Rua Maxwell próximo ao 522,,-22.92286,-43.24918,0
100736,Rua Maxwell próximo ao 560,,-22.92355,-43.25048,0
100737,Rua Barão de Mesquita próximo ao 850,,-22.92427,-43.25231,0
100738,Rua Ferreira Pontes próximo ao 140-166,,-22.92566,-43.25397,0
100739,Rua Paula Brito próximo ao 324,,-22.92704,-43.25375,0
100740,Rua Paula Brito próximo ao 442-462,,-22.92808,-43.25445,0
100741,Rua Paula Brito próximo ao 755,,-22.93052,-43.25594,0
100742,Estrada do Pontal próximo ao 1490-1698,,-23.02472,-43.52127,0
100743,Estrada do Pontal próximo ao 1269-1349,,-23.02227,-43.52102,0
100744,Estrada do Pontal próximo ao 610-800,,-23.01865,-43.52003,0
100746,Avenida das Américas próximo ao 100,,-23.01202,-43.5193,0
100747,Ponto Terminal Estrada dos Bandeirantes próximo ao 30112,,-23.01121,-43.51772,0
100748,Estrada dos Bandeirantes próximo ao 29800-29976,,-23.01176,-43.51595,0
100749,Estrada dos Bandeirantes próximo ao 29776-29798,,-23.01199,-43.51423,0
100750,Estrada dos Bandeirantes próximo ao 29696-29736,,-23.01127,-43.51278,0
100751,Estrada dos Bandeirantes próximo ao 29186,,-23.00919,-43.51141,0
100752,Estrada dos Bandeirantes próximo ao 28816-28830,,-23.00577,-43.51075,0
100753,Estrada dos Bandeirantes próximo ao 28615-28727,,-23.00389,-43.51051,0
100755,Estrada dos Bandeirantes próximo ao 28100-28178,,-22.99798,-43.50832,0
100758,Estrada dos Bandeirantes próximo ao 27716-27754,,-22.99258,-43.50619,0
100759,Estrada dos Bandeirantes próximo ao 26856,,-22.9912,-43.50348,0
100760,Estrada dos Bandeirantes próximo ao 26850-27134,,-22.98913,-43.50327,0
100761,Estrada dos Bandeirantes próximo ao 26796-26848,,-22.98775,-43.50354,0
100762,Estrada dos Bandeirantes próximo ao 26017-26201,,-22.98521,-43.5057,0
100764,Estrada dos Bandeirantes próximo ao 3864-5010,,-22.97937,-43.50479,0
100765,Estrada dos Bandeirantes próximo ao 25636,,-22.97763,-43.49988,0
100766,Estrada Cabungui próximo ao 767,,-22.97692,-43.49604,0
100767,Estrada dos Bandeirantes próximo ao 24200-24264,,-22.9765,-43.49478,0
100768,Estrada dos Bandeirantes próximo ao 23564-23934,,-22.97782,-43.49300,0
100771,Estrada dos Bandeirantes próximo ao 22694-22790,,-22.98428,-43.48976,0
100773,Estrada dos Bandeirantes próximo ao 21694-21980,,-22.98776,-43.48519,0
100776,Estrada dos Bandeirantes próximo ao 20730-20898,,-22.9869,-43.47688,0
100777,Estrada dos Bandeirantes próximo ao 20730,,-22.98421,-43.47178,0
100779,Estrada dos Bandeirantes próximo ao 18498-18752,,-22.9828,-43.46856,0
100780,Estrada dos Bandeirantes próximo ao 15802-15900,,-22.98244,-43.46504,0
100781,Estrada dos Bandeirantes próximo ao 14808-14914,,-22.98356,-43.46221,0
100783,Estrada dos Bandeirantes próximo ao 14172-14254,,-22.98623,-43.45756,0
100784,Estrada dos Bandeirantes próximo ao 13844-13932,,-22.98801,-43.45528,0
100785,Estrada dos Bandeirantes próximo ao 13620-13782,,-22.98901,-43.45412,0
100786,Estrada dos Bandeirantes próximo ao 13258-13620,,-22.99133,-43.45164,0
100787,Estrada dos Bandeirantes próximo ao 12790,,-22.99289,-43.44884,0
100788,Estrada Benvindo de Novaes próximo ao 02-48,,-22.99327,-43.44743,0
100789,Estrada Benvindo de Novaes próximo ao 292-358,,-22.99551,-43.44919,0
100790,Estrada Benvindo de Novaes próximo ao 494-730,,-22.99669,-43.45016,0
100791,Estrada Benvindo de Novaes próximo ao 732-1024,,-22.99841,-43.45154,0
100792,Estrada Benvindo de Novaes próximo ao 1374-1574,,-23.00266,-43.45496,0
100793,Estrada Benvindo de Novaes próximo ao 1576-1880,,-23.00502,-43.45686,0
100794,Estrada Benvindo de Novaes próximo ao 2425-2429,,-23.01045,-43.46123,0
100795,Estrada Benvindo de Novaes próximo ao 2555,,-23.0119,-43.46241,0
100796,Estrada Benvindo de Novaes próximo ao 2848-2930,,-23.01287,-43.4631,0
100797,Avenida das Américas próximo ao 15337-15383,,-23.01403,-43.46365,0
100798,Avenida das Américas próximo ao 15109,,-23.01339,-43.46116,0
100799,Avenida das Américas próximo ao 14755,,-23.01224,-43.45666,0
100800,Avenida das Américas próximo ao 13999,,-23.01121,-43.45255,0
100801,Avenida das Américas próximo ao 13561,,-23.00974,-43.44679,0
100802,Avenida das Américas próximo ao 13505-13513,,-23.00875,-43.44298,0
100803,Terminal Recreio (SPPO) Avenida das Américas próximo ao 1746,,-23.00794678335572,-43.4401824196434,0
100804,Avenida das Américas próximo ao 11915-12003,,-23.00515,-43.42958,0
100805,Avenida das Américas próximo ao 11515-11535,,-23.00378,-43.42537,0
100806,Avenida das Américas próximo ao 10501,,-23.00166,-43.41901,0
100807,Avenida das Américas próximo ao 10333,,-23.001,-43.41624,0
100808,Avenida das Américas próximo ao 8549-9263,,-23.00061,-43.41388,0
100809,Avenida das Américas próximo ao 307,,-23.00028,-43.40865,0
100810,Avenida das Américas próximo ao 10001,,-23.00041,-43.40392,0
100811,Avenida das Américas próximo ao 4,,-23.00051,-43.40022,0
100812,Avenida das Américas,,-23.00063,-43.39584,0
100813,Avenida das Américas próximo ao 8189-8319,,-23.00071,-43.39259,0
100814,Avenida das Américas próximo ao 7835,,-23.00081,-43.38912,0
100815,Avenida das Américas próximo ao 77777,,-23.00087,-43.38596,0
100816,Avenida das Américas próximo ao 6711-6909,,-23.00077,-43.38151,0
100817,Avenida das Américas próximo ao 6569-6607,,-23.00075,-43.37864,0
100818,Avenida das Américas próximo ao 6231-6333,,-23.0007,-43.37614,0
100819,Avenida das Américas próximo ao 5847-6075,,-23.00059,-43.37226,0
100821,Avenida das Américas próximo ao 4485,,-23.00037,-43.35963,0
100822,Avenida das Américas próximo ao 113,,-23.00038,-43.35757,0
100823,Avenida das Américas próximo ao 4059,,-23.00042,-43.35493,0
100824,Avenida das Américas próximo ao 3899-3921,,-23.00047,-43.35245,0
100825,Avenida das Américas próximo ao 3565-3665,,-23.00047,-43.35015,0
100826,Avenida das Américas próximo ao 599,,-23.00051,-43.34773,0
100827,Avenida das Américas próximo ao 605,,-23.00053,-43.34646,0
100828,Avenida das Américas próximo ao 614,,-23.00058,-43.3428,0
100829,Avenida das Américas próximo ao 805,,-23.00065,-43.33971,0
100830,Avenida das Américas próximo ao 1917,,-23.00088,-43.33573,0
100831,Avenida das Américas próximo ao 1701,,-23.00114,-43.33191,0
100832,Avenida das Américas próximo ao 1479-1497,,-23.00156,-43.3295,0
100833,Avenida das Américas próximo ao 1245,,-23.0022,-43.32785,0
100834,Avenida das Américas próximo ao 899,,-23.0042,-43.32313,0
100835,Avenida das Américas próximo ao 238,,-23.00554,-43.31853,0
100836,Avenida Armando Lombardi próximo ao 775,,-23.00654,-43.31558,0
100837,Avenida Ministro Ivan Lins próximo ao 2641-2871,,-23.0085,-43.30367,0
100838,Avenida Ministro Ivan Lins próximo ao 430,,-23.0111,-43.30133,0
100839,Auto Estrada Lagoa-Barra,,-22.99925,-43.26911,0
100840,AutoEstrada Lagoa-Barra próximo ao 841,,-22.99816,-43.26568,0
100841,Rua Engenheiro Amandino de Carvalho próximo ao 216-240,,-22.99756,-43.2605,0
100842,Ponto Terminal da Rua Engenheiro Amandino de Carvalho próximo ao 241-385,,-22.99858,-43.25963,0
100843,Avenida Niemeyer próximo ao 19,,-22.99863,-43.25654,0
100844,Avenida Niemeyer próximo ao 550,,-22.99899,-43.25127,0
100846,Avenida Niemeyer próximo ao 276-280,,-22.9973,-43.23761,0
100847,Avenida Niemeyer próximo ao 218,,-22.99528,-43.2351,0
100848,Avenida Niemeyer próximo ao 174-202,,-22.99485,-43.2345,0
100850,Avenida Niemeyer próximo ao 128,,-22.99109,-43.23261,0
100851,Avenida Niemeyer próximo ao 88,,-22.98999,-43.22755,0
100852,Avenida Delfim Moreira,,-22.98744,-43.22381,0
100853,Avenida Delfim Moreira próximo ao 1370,,-22.98689,-43.22037,0
100854,Avenida Vieira Souto próximo ao 610,,-22.98626,-43.2118,0
100855,Avenida Vieira Souto próximo ao 1746,,-22.98681,-43.20149,0
100856,BRS 1-3- Avenida Nossa Senhora de Copacabana 1417,,-22.986110861286605,-43.189864635581976,0
100857,BRS 1-3- Avenida Nossa Senhora de Copacabana 1229,,-22.9824,-43.19095,0
100858,BRS 1-3- Avenida Nossa Senhora de Copacabana 959,,-22.976510779818433,-43.19016180737495,0
100859,BRS 2 - Avenida Nossa Senhora de Copacabana 787,,-22.973013351973183,-43.188170233135224,0
100860,BRS 1-3- Avenida Nossa Senhora de Copacabana 581,,-22.96952558132928,-43.18502311904907,0
100861,BRS 1-3- Avenida Nossa Senhora de Copacabana 313,,-22.966573217961766,-43.179264023313515,0
100862,BRS 3-I - Avenida Princesa Isabel 186,,-22.962958659251075,-43.17436297305106,0
100863,BRS 3-I - Avenida Venceslau Braz 119,,-22.95605880688879,-43.177492915344224,0
100864,Avenida Venceslau Braz próximo ao 101-149,,-22.95274,-43.17599,0
100865,Avenida das Nações Unidas,,-22.94785,-43.18131,0
100866,Avenida das Nações Unidas próximo ao 210,,-22.94386,-43.1807,0
100868,Estrada do Tindiba próximo ao 2904,,-22.91724,-43.37712,0
100869,Estrada do Tindiba próximo ao 2744-2786,,-22.9182,-43.37642,0
100870,Estrada do Tindiba próximo ao 2640,,-22.91918,-43.3757,0
100871,Estrada do Tindiba próximo ao 2560,,-22.91998,-43.37511,0
100872,Estrada do Tindiba próximo ao 2380,,-22.92102,-43.37435,0
100875,Avenida Nelson Cardoso próximo ao 928,,-22.9211,-43.36965,0
100876,Avenida Nelson Cardoso próximo ao 618,,-22.91951,-43.36713,0
100877,Avenida Nelson Cardoso próximo ao 382-432,,-22.91849,-43.36504,0
100878,Avenida Nelson Cardoso próximo ao 185a,,-22.91743,-43.36318,0
100879,Avenida Geremário Dantas próximo ao 41,,-22.91749,-43.36134,0
100880,Avenida Geremário Dantas próximo ao 105-109,,-22.91934,-43.36057,0
100881,Avenida Geremário Dantas próximo ao 224-230,,-22.92186,-43.36073,0
100883,Avenida Geremário Dantas próximo ao 469-479,,-22.9249,-43.35835,0
100885,Avenida Geremário Dantas próximo ao 760-776,,-22.92971,-43.35377,0
100886,Avenida Geremário Dantas próximo ao 818,,-22.93107,-43.3535,0
100887,Avenida Geremário Dantas próximo ao 878,,-22.93244,-43.35308,0
100888,AVENIDA GEREMARIO DANTAS próximo ao 961,,-22.93453,-43.35259,0
100889,Avenida Geremário Dantas próximo ao 1103,,-22.93712,-43.35095,0
100890,Viaduto de Manguinhos próximo ao 360,,-22.87185,-43.24824,0
100891,Avenida Brasil próximo ao 4365-4601,,-22.87796,-43.24146,0
100892,Avenida Brasil próximo ao 3129-3133,,-22.88592,-43.23489,0
100893,Avenida Brasil próximo ao 2577-2609,,-22.88723,-43.23068,0
100894,Avenida Brasil próximo ao 2321,,-22.88556,-43.22835,0
100895,Avenida Brasil próximo ao 973-1043,,-22.89102,-43.21715,0
100896,Rua Silva Cardoso próximo ao 349-381,,-22.87865,-43.46359,0
100897,Rua Silva Cardoso próximo ao 125-147,,-22.87679,-43.46362,0
100898,Praça Primeiro de Maio próximo ao 505,,-22.87705,-43.47303,0
100899,Avenida de Santa Cruz próximo ao 5612,,-22.8783,-43.47482,0
100900,Avenida de Santa Cruz próximo ao 5830,,-22.8793,-43.47681,0
100901,Avenida de Santa Cruz próximo ao 5896,,-22.87953,-43.47729,0
100902,Avenida de Santa Cruz próximo ao 6190,,-22.88061,-43.4798,0
100903,Avenida de Santa Cruz próximo ao 6444-6582,,-22.88201,-43.4826,0
100904,Avenida de Santa Cruz próximo ao 6698-6828,,-22.88221,-43.48522,0
100905,Avenida de Santa Cruz próximo ao 7050-7138,,-22.88256,-43.48734,0
100907,Avenida de Santa Cruz próximo ao 7474,,-22.88337,-43.49346,0
100908,Avenida de Santa Cruz próximo ao 7956,,-22.88239,-43.49566,0
100909,Avenida de Santa Cruz próximo ao 8340,,-22.88142,-43.49915,0
100910,Avenida de Santa Cruz próximo ao 8498,,-22.88026,-43.50118,0
100911,Avenida de Santa Cruz próximo ao 8958,,-22.87931,-43.50475,0
100912,Avenida de Santa Cruz próximo ao 9042-9072,,-22.87945,-43.50622,0
100913,Avenida de Santa Cruz próximo ao 9200-9280,,-22.88043,-43.50822,0
100914,Avenida de Santa Cruz próximo ao 9718,,-22.88107,-43.51175,0
100915,Avenida de Santa Cruz próximo ao 9970,,-22.88212,-43.51413,0
100916,Avenida de Santa Cruz próximo ao 10850,,-22.88534,-43.52006,0
100917,Avenida de Santa Cruz próximo ao 10912,,-22.88692,-43.52093,0
100918,Avenida de Santa Cruz próximo ao 11120,,-22.88853,-43.52199,0
100919,Avenida de Santa Cruz próximo ao 11590,,-22.89031,-43.52541,0
100920,Avenida de Santa Cruz próximo ao 12050-12140,,-22.89257,-43.53019,0
100921,Avenida de Santa Cruz próximo ao 12212,,-22.89246,-43.53163,0
100922,Avenida de Santa Cruz próximo ao 12570-12600,,-22.8942,-43.53473,0
100923,Rua Artur Rios próximo ao 220,,-22.89545,-43.53774,0
100924,Rua Juruena próximo ao 208-210,,-22.89699,-43.53948,0
100925,Rua Artur Rios próximo ao 718,,-22.89855,-43.54125,0
100926,Rua Artur Rios próximo ao 1136-1214,,-22.90113,-43.54445,0
100927,Rua Artur Rios próximo ao 1428,,-22.90184,-43.54693,0
100928,Rua Artur Rios próximo ao 1706,,-22.90223,-43.54923,0
100929,Avenida Cesário de Melo próximo ao 1651-1699,,-22.90156,-43.54995,0
100930,Rua Xavier Marques próximo ao 58,,-22.90154,-43.55621,0
100931,Praça Doutor Raul Boaventura próximo ao 210-230,,-22.90256,-43.56077,0
100932,Rua Engenheiro Trindade próximo ao 263-367,,-22.90282,-43.56285,0
100933,Rua Gramado próximo ao 1979,,-22.90364,-43.56651,0
100934,Avenida Maria Teresa próximo ao 793,,-22.90496,-43.5662,0
100935,Avenida Cesário de Melo próximo ao 4488-4506,,-22.90704,-43.57477,0
100936,Avenida Cesário de Melo próximo ao 4654,,-22.9075,-43.57637,0
100937,Avenida Cesário de Melo próximo ao 5082-5142,,-22.90931,-43.58004,0
100938,Avenida Cesário de Melo próximo ao 5484,,-22.91065,-43.58413,0
100939,Avenida Cesário de Melo próximo ao 6002,,-22.91119,-43.58992,0
100940,Avenida Cesário de Melo próximo ao 6578,,-22.91219,-43.59335,0
100941,Avenida Cesário de Melo próximo ao 6612-6780,,-22.91275,-43.5948,0
100942,Avenida Cesário de Melo próximo ao 6866,,-22.91331,-43.59604,0
100943,Avenida Cesário de Melo próximo ao 7512,,-22.91402,-43.60167,0
100944,Avenida Cesário de Melo próximo ao 7800,,-22.9149,-43.60577,0
100945,Rua Albino Vasconcelos próximo ao 44,,-22.91583,-43.60951,0
100946,Rua França Leite próximo ao 24,,-22.91616,-43.61258,0
100947,Avenida Cesário de Melo próximo ao 9000-9026,,-22.91537,-43.61647,0
100948,Avenida Cesário de Melo próximo ao 9756,,-22.91600,-43.62399,0
100949,Avenida Cesário de Melo próximo ao 10170,,-22.91553,-43.62821,0
100951,Avenida Cesário de Melo próximo ao 10172-10582,,-22.91667,-43.63303,0
100952,Rua Felipe Cardoso próximo ao 623,,-22.92062,-43.68086,0
100953,Rua Felipe Cardoso próximo ao 521,,-22.91992,-43.68153,0
100954,Rua Felipe Cardoso próximo ao 373,,-22.91884,-43.68239,0
100955,Rua Felipe Cardoso próximo ao 145-151,,-22.91708,-43.68336,0
100956,Rua Álvaro Alberto próximo ao 394-480,,-22.91851,-43.6877,0
100957,Rua Ferreira Nobre,,-22.91979,-43.68962,0
100958,Rua Ferreira Nobre próximo ao 992-1040,,-22.92639,-43.6909,0
100959,Avenida Areia Branca próximo ao 61-125,,-22.92811,-43.69054,0
100960,Avenida Areia Branca próximo ao 454,,-22.93100,-43.68951,0
100961,Avenida Areia Branca próximo ao 979-1009,,-22.93526,-43.68879,0
100962,Avenida Areia Branca próximo ao 1697,,-22.93841,-43.68662,0
100963,Avenida Areia Branca próximo ao 1829-1837,,-22.942000,-43.68417,0
100964,Avenida Areia Branca próximo ao 2297,,-22.94486,-43.6822,0
100965,Rua Cincinato de Freitas próximo ao 21,,-22.94644,-43.68148,0
100966,Avenida Areia Branca próximo ao 2562-2572,,-22.94877,-43.68108,0
100967,Estrada de Sepetiba próximo ao 2184-2302,,-22.95036,-43.68154,0
100968,Estrada de Sepetiba próximo ao 2374-2582,,-22.95172,-43.68226,0
100969,Estrada de Sepetiba próximo ao 3145-3231,,-22.95402,-43.6847,0
100971,Avenida 3 próximo ao 50,,-22.9563,-43.68887,0
100972,Estrada de Sepetiba próximo ao 3508-3678,,-22.95743,-43.69026,0
100973,Estrada de Sepetiba próximo ao 4058-4572,,-22.95867,-43.69274,0
100975,Estrada de Sepetiba próximo ao 4525,,-22.96043,-43.69843,0
100976,Estrada de Sepetiba próximo ao 4700-4772,,-22.96217,-43.70068,0
100977,Estrada de Sepetiba próximo ao 5008-5038,,-22.96416,-43.70465,0
100979,Estrada de Sepetiba próximo ao 5775,,-22.96765,-43.70631,0
100982,Praia de Sepetiba próximo ao 1394,,-22.97464,-43.70675,0
100983,Praia de Sepetiba próximo ao 1194A,,-22.9761,-43.7057,0
100985,Praia de Sepetiba próximo ao 400,,-22.98262,-43.70183,0
100986,Praia de Sepetiba próximo ao 222,,-22.98411,-43.70102,0
100987,Praia do Recôncavo próximo ao 1322,,-22.98556,-43.69871,0
100988,Praia do Recôncavo próximo ao 696,,-22.98494,-43.69492,0
100989,Avenida Visconde de Albuquerque próximo ao 1165,,-22.97956,-43.22669,0
100990,Avenida Visconde de Albuquerque próximo ao 999,,-22.9811,-43.22679,0
100991,Avenida Visconde de Albuquerque próximo ao 633-641,,-22.98334,-43.22831,0
100992,Avenida Visconde de Albuquerque próximo ao 517,,-22.9843,-43.22918,0
100993,BRS 2 - Avenida Ataulfo de Paiva 1079,,-22.98525,-43.22604,0
100994,BRS 2 - Avenida Ataulfo de Paiva 527,,-22.984069631335768,-43.22107288591384,0
100995,BRS 2 - Avenida Ataulfo de Paiva 19,,-22.983734938567746,-43.21613043684007,0
100996,BRS 2 - Rua Visconde de Pirajá 525,,-22.984014938557518,-43.210388746032706,0
100998,BRS 2 - Rua Visconde de Pirajá 145,,-22.984585927319337,-43.199731253967286,0
100999,BRS 2 - Rua Gomes Carneiro 138,,-22.984079368563002,-43.19425629811287,0
101000,BRS 2 - Rua Francisco Sá 51,,-22.983388519677465,-43.19241096197128,0
101001,BRS 1-3- Avenida Nossa Senhora de Copacabana 1093,,-22.97933530635983,-43.19089390674591,0
101003,BRS 1-3- Avenida Nossa Senhora de Copacabana 749,,-22.972436705215834,-43.18779752149582,0
101004,BRS 2 - Avenida Nossa Senhora de Copacabana lado oposto ao número 534,,-22.968803964952883,-43.183991195106515,0
101005,BRS 2 - Avenida Princesa Isabel 334,,-22.962165225971635,-43.1747927116394,0
101006,BRS 2 - Avenida Venceslau Braz 119,,-22.956702780644296,-43.17738609325409,0
101007,Avenida Pasteur próximo ao 350,,-22.95319,-43.17188,0
101008,Avenida Pasteur próximo ao 451,,-22.95422,-43.16858,0
101009,Rua Ramon Franco próximo ao 31-39,,-22.95331,-43.16718,0
101010,Avenida Portugual próximo ao 426,,-22.95064,-43.1677,0
101011,Rua Marechal Cantuária próximo ao 92,,-22.94927,-43.1662,0
101012,Rua Marechal Cantuária próximo ao 159-179,,-22.9484,-43.16442,0
101013,Rua Cândido Gafree próximo ao 40,,-22.94695,-43.16218,0
101014,Rua Cândido Gafree próximo ao 95,,-22.94565,-43.16135,0
101015,Rua Cândido Gafree próximo ao 199,,-22.9438,-43.16016,0
101016,Ponto Terminal da Rua Visconde de Inhauma próximo ao 50-56,,-22.89935,-43.17812,0
101017,Avenida Rio de Janeiro próximo ao 22,,-22.89441,-43.21339,0
101018,Avenida Brasil próximo ao 10590,,-22.83359,-43.2637,0
101019,Avenida Lobo Júnior 864,,-22.82871,-43.27662,0
101020,Avenida Lobo Júnior 994,,-22.82983,-43.27746,0
101021,Avenida Lobo Júnior 1130,,-22.8307,-43.27818,0
101022,Avenida Lobo Júnior 1338,,-22.83216,-43.27944,0
101023,Rua Bento Cardoso próximo ao 66-78,,-22.8367,-43.28751,0
101024,Rua Bento Cardoso próximo ao 130,,-22.83592,-43.28825,0
101025,Rua Bento Cardoso próximo ao 417-447,,-22.83419,-43.28941,0
101026,Rua Bento Cardoso próximo ao 835-933,,-22.83136,-43.2915,0
101027,Rua Itabira próximo ao 165,,-22.83033,-43.29315,0
101028,Rua Itabira próximo ao 383,,-22.82852,-43.29414,0
101029,Rua Álvaro de Macedo próximo ao 134,,-22.81766,-43.30371,0
101031,Rua Cordovil próximo ao 640-666,,-22.81996,-43.30562,0
101032,Rua Cordovil próximo ao 936,,-22.8216,-43.3071,0
101033,Rua Cordovil próximo ao 1286-1390,,-22.82352,-43.30911,0
101034,Rua Cordovil próximo ao 1658,,-22.82456,-43.31145,0
101035,Estrada da Água Grande próximo ao 1299-1529,,-22.82567,-43.31376,0
101036,Estrada da Água Grande oposto ao 1102,,-22.82635,-43.31605,0
101037,Estrada da Água Grande próximo ao 1031-1097,,-22.82702,-43.31717,0
101038,Estrada da Agua Grande 807,,-22.82766,-43.31859,0
101039,Estrada da Água Grande 515,,-22.82774,-43.32179,0
101040,Estrada da Água Grande próximo ao 329,,-22.82836,-43.32443,0
101041,Estrada da Água Grande próximo ao 223,,-22.83048,-43.3269,0
101042,Avenida Monsenhor Félix próximo ao 1779-2067,,-22.83228,-43.32865,0
101044,Estrada do Colégio próximo ao 197,,-22.83756,-43.33221,1
101045,Estrada do Barro Vermelho próximo ao 1759,,-22.84346,-43.33626,0
101046,Estrada do Barro Vermelho próximo ao 1651-1665,,-22.84446,-43.33727,0
101047,Estrada do Barro Vermelho próximo ao 1413,,-22.84599,-43.33907,0
101048,Estrada do Barro Vermelho próximo ao 1155-1195,,-22.84734,-43.34093,0
101049,Rua Doutor Luís Bicalho próximo ao 487,,-22.84896,-43.34431,0
101050,Rua Doutor Luís Bicalho próximo ao 129,,-22.85098,-43.34678,0
101051,Rua dos Topázios próximo ao 583,,-22.85137,-43.34741,0
101052,Rua dos Topázios próximo ao 200,,-22.8527,-43.34944,0
101053,Rua dos Topázios próximo ao numero 55,,-22.85371,-43.35086,0
101054,Rua dos Diamantes próximo ao 106,,-22.8536,-43.3514,0
101055,Rua das Turquezas próximo ao 368,,-22.85177,-43.35331,0
101056,Rua das Safiras próximo ao 349,,-22.85267,-43.3535,0
101057,BRS I - Avenida Presidente Vargas 962,,-22.902831286593866,-43.18494204166413,0
101058,Avenida Brasil próximo ao 23707-23829,,-22.84878,-43.38263,0
101059,Perto do bar do luiz,,-22.8469,-43.37972,0
101060,Avenida Brasil próximo ao 19,,-22.84582,-43.37796,0
101061,Avenida Brasil próximo ao 22965,,-22.84486,-43.37643,0
101062,Rua Luís Coutinho Cavalcanti próximo ao 161-219,,-22.8456,-43.37417,0
101064,Rua Luís Coutinho Cavalcanti próximo ao 752-820,,-22.85054,-43.37123,0
101066,Rua Aurélio Valporto próximo ao 234,,-22.85496,-43.37079,0
101067,Rua Aurélio Valporto próximo ao 130-148,,-22.85717,-43.37044,0
101068,Rua Carolina Machado próximo ao 1950,,-22.86108,-43.36987,0
101069,Rua Carolina Machado próximo ao 1782-1806,,-22.86253,-43.36681,0
101070,Rua Antônio Raposo próximo ao 4,,-22.8641,-43.36209,0
101071,Rua João Vicente próximo ao 1204-1334,,-22.86428,-43.36343,0
101072,Rua João Vicente próximo ao 1336-1436,,-22.86331,-43.36608,0
101074,Rua João Vicente próximo ao 1482-1554,,-22.86181,-43.36922,0
101076,Rua João Vicente próximo ao 1600,,-22.86095,-43.37115,0
101077,Rua General Savaget próximo ao 62,,-22.86189,-43.37198,0
101079,Estrada de Jacarepaguá próximo ao 3586-3596,,-22.97202,-43.33139,0
101080,Estrada de Jacarepaguá próximo ao 3632-3648,,-22.97181,-43.33418,0
101081,Estrada de Jacarepaguá próximo ao 3662-3702,,-22.97025,-43.3346,0
101082,Estrada de Jacarepaguá próximo ao 4447,,-22.9697,-43.33409,0
101083,Avenida Engenheiro Souza Filho próximo ao 1000,,-22.96889,-43.33603,0
101084,Estrada de Jacarepaguá próximo ao 5200-5290,,-22.96399,-43.33502,0
101085,Estrada de Jacarepaguá próximo ao 5380,,-22.96134,-43.33478,0
101086,Estrada de Jacarepaguá próximo ao 5744,,-22.95844,-43.3357,0
101087,Estrada de Jacarepaguá próximo ao 5966,,-22.95643,-43.33661,0
101089,Rua Soldado Luís Gonzaga próximo ao 7,,-22.95535,-43.34021,0
101091,Estrada do Engenho DAgua próximo ao 496,,-22.95712,-43.34136,0
101092,Estrada do Engenho DAgua próximo ao 02-36,,-22.95726,-43.34339,0
101093,Estrada do Engenho DAgua próximo ao 1302-1326,,-22.95635,-43.3465,0
101094,Estrada do Engenho DAgua próximo ao 1432-1502,,-22.95579,-43.34868,0
101095,Avenida Tenente Coronel Muniz de Aragão próximo ao 1568,,-22.95801,-43.35123,0
101096,Avenida Tenente Coronel Muniz de Aragão próximo ao 1528,,-22.95811,-43.3518,0
101097,Avenida Tenente Coronel Muniz de Aragão próximo ao 2273-2305,,-22.95568,-43.35319,0
101098,Avenida Tenente Coronel Muniz de Aragão próximo ao 2442-2472,,-22.95425,-43.35474,0
101099,Estrada do Gabinal próximo ao 2844-2846,,-22.95342,-43.35633,0
101100,Rua Edgard Werneck próximo ao 1663,,-22.95206,-43.35805,0
101101,Rua Edgard Werneck próximo ao 1650,,-22.95007,-43.35915,0
101102,Praça Padre Júlio Groten próximo ao 745-767,,-22.94739,-43.36006,0
101103,Estrada Marechal Miguel Salazar Mendes de Moraes próximo ao 1611-1657,,-22.94682,-43.36082,0
101104,Estrada Marechal Miguel Salazar Mendes de Moraes próximo ao 1313-1343,,-22.94532,-43.3635,0
101105,Estrada Marechal Miguel Salazar Mendes de Moraes próximo ao 971-983,,-22.9431,-43.36588,0
101106,Estrada Marechal Miguel Salazar Mendes de Moraes próximo ao 661-669,,-22.94064,-43.36757,0
101107,Estrada Marechal Miguel Salazar Mendes de Moraes próximo ao 65-111,,-22.93671,-43.37071,0
101108,Estrada dos Bandeirantes próximo ao 973-1103,,-22.93409,-43.37218,0
101109,Estrada dos Bandeirantes próximo ao 815,,-22.9307,-43.37313,0
101110,Estrada dos Bandeirantes próximo ao 497,,-22.92791,-43.37336,0
101113,Estrada do Cafundá próximo ao 238,,-22.91818,-43.36711,0
101114,Rua Godofredo Viana próximo ao 501,,-22.91952,-43.36871,0
101115,Rua Apiacás próximo ao 130,,-22.92043,-43.3708,0
101116,Rua Apiacás próximo ao 334,,-22.92144,-43.37258,0
101117,Estrada Rodrigues Caldas próximo ao 88-90,,-22.92293,-43.37526,0
101118,Estrada Rodrigues Caldas próximo ao 472-492,,-22.92282,-43.37831,0
101119,Estrada Rodrigues Caldas próximo ao 666-700,,-22.92295,-43.38038,0
101120,Estrada Rodrigues Caldas próximo ao 780,,-22.92301,-43.38105,0
101122,Estrada Rodrigues Caldas próximo ao 1040-1098,,-22.92392,-43.38479,0
101123,Estrada Rodrigues Caldas próximo ao 1358,,-22.92473,-43.38728,0
101124,Estrada Rodrigues Caldas próximo ao 1550,,-22.92474,-43.38875,0
101125,Estrada Rodrigues Caldas próximo ao 1870,,-22.92568,-43.39088,0
101126,Estrada Rodrigues Caldas próximo ao 2006,,-22.92653,-43.39133,0
101127,Estrada Rodrigues Caldas próximo ao 2128,,-22.92761,-43.39189,0
101128,Estrada Rodrigues Caldas próximo ao 2246,,-22.9284,-43.3925,0
101129,Estrada do Outeiro Santo próximo ao 1018,,-22.9296,-43.39157,0
101130,Estrada do Outeiro Santo próximo ao 730-754,,-22.93099,-43.38934,0
101131,Estrada do Outeiro Santo próximo ao 62,,-22.9325,-43.38495,0
101133,Estrada do Guerenguê próximo ao 1770,,-22.93451,-43.38316,0
101135,Estrada do Guerenguê próximo ao 1649-1729,,-22.93808,-43.38307,0
101136,Estrada do Guerenguê próximo ao 2074-2120,,-22.93922,-43.38423,0
101137,Rua André Rocha próximo ao 3099-3131,,-22.94185,-43.38435,0
101138,Rua André Rocha próximo ao 68-70,,-22.94253,-43.38471,0
101139,Rua André Rocha próximo ao 3234-3328,,-22.94312,-43.38553,0
101140,Rua André Rocha próximo ao 3330-3640,,-22.94342,-43.38601,0
101142,Rua André Rocha próximo ao 3722-3782,,-22.94549,-43.38884,0
101144,Rua André Rocha próximo ao 3808-4210,,-22.9487,-43.39065,0
101145,Rua André Rocha próximo ao 4815-4823,,-22.95100,-43.39142,0
101146,Rua André Rocha próximo ao 4851-5001,,-22.95232,-43.39184,0
101147,Estrada de Curicica próximo ao 5037-5163,,-22.95317,-43.39145,0
101148,Estrada de Curicica próximo ao 1696-1724,,-22.95455,-43.39168,0
101150,Terminal Terreirão,,-23.021547826893954,-43.48265358531951,0
101152,Avenida Guiomar Novaes próximo ao 80,,-23.02382,-43.48204,0
101153,Estrada do Pontal próximo ao 6821-7007,,-23.03043,-43.47844,0
101154,Estrada do Pontal próximo ao 7009-7101,,-23.03029,-43.47699,0
101156,Estrada do Pontal próximo ao 7383-7535,,-23.03059,-43.47377,0
101157,Estrada do Pontal próximo ao 7537-7549,,-23.03100,-43.47235,0
101158,Avenida Lúcio Costa próximo ao 17686,,-23.02945,-43.46819,0
101159,Avenida Lúcio Costa próximo ao 17600,,-23.02900,-43.46755,0
101160,Avenida Lúcio Costa próximo ao 17400,,-23.02782,-43.46509,0
101161,Avenida Lúcio Costa próximo ao 17276,,-23.02668,-43.46172,0
101162,Avenida Lúcio Costa próximo ao 10,,-23.02563,-43.45859,0
101163,Avenida Glaucio Gil próximo ao 54-132,,-23.02398,-43.45742,0
101164,Avenida Glaucio Gil próximo ao 202-250,,-23.02262,-43.45794,0
101165,Avenida Glaucio Gil próximo ao 500,,-23.02053,-43.45875,0
101166,Avenida Glaucio Gil próximo ao 810-916,,-23.01664,-43.46023,0
101167,Avenida Glaucio Gil próximo ao 1102-1126,,-23.01436,-43.46111,0
101169,Avenida Lúcio Costa próximo ao 126,,-23.01109,-43.36837,0
101170,Avenida Lúcio Costa próximo ao 6450,,-23.01089,-43.36416,0
101171,Avenida Lúcio Costa próximo ao 54,,-23.01063,-43.35789,0
101172,Avenida Lúcio Costa próximo ao 5800,,-23.01054,-43.35534,0
101173,Avenida Lúcio Costa próximo ao 5400,,-23.01045,-43.35135,0
101174,Avenida Lúcio Costa próximo ao 23,,-23.01047,-43.34578,0
101175,Avenida Lúcio Costa próximo ao 4000,,-23.01052,-43.3413,0
101177,Avenida Lúcio Costa próximo ao 3712,,-23.01081,-43.33401,0
101178,Avenida Lúcio Costa próximo ao 30,,-23.01108,-43.3302,0
101179,Avenida Lúcio Costa próximo ao 41,,-23.01142,-43.32704,0
101180,Avenida Lúcio Costa próximo ao 2960,,-23.0119,-43.3238,0
101181,Avenida Lúcio Costa próximo ao 2210,,-23.01286,-43.31964,0
101182,Avenida Lúcio Costa próximo ao 1976,,-23.01336,-43.31709,0
101183,Avenida Lúcio Costa próximo ao 2-1702,,-23.01404,-43.3142,0
101184,Avenida do Pepê próximo ao 1234,,-23.01457,-43.31114,0
101185,Avenida Olegário Maciel próximo ao 36,,-23.01421,-43.30551,0
101186,Avenida Olegário Maciel próximo ao 260-340,,-23.01247,-43.30513,0
101187,Avenida Olegário Maciel próximo ao 366-390,,-23.01167,-43.30495,0
101188,Avenida Olegário Maciel próximo ao 561-583,,-23.00916,-43.30439,0
101189,Praça Euvaldo Lodi próximo ao 15,,-23.00861,-43.30408,0
101190,AutoEstrada Lagoa-Barra próximo ao 399,,-22.99609,-43.25938,0
101191,Estrada da Gávea próximo ao 861-873,,-22.99514,-43.2575,0
101192,Estrada da Gávea próximo ao 827,,-22.99364,-43.25421,0
101193,Avenida Padre Leonel Franca próximo ao 26-90,,-22.97866,-43.22701,0
101194,Avenida Bartolomeu Mitre próximo ao 990,,-22.97878,-43.22426,0
101195,Avenida Bartolomeu Mitre próximo ao 1111-1267,,-22.97699,-43.22493,0
101196,Avenida Bartolomeu Mitre próximo ao 1372-1458,,-22.9751,-43.22573,0
101197,Avenida Rodrigo Otávio próximo ao 3200,,-22.97349,-43.22542,0
101198,Rua Jardim Botânico próximo ao 920-954,,-22.97008,-43.22239,0
101199,Rua Jardim Botânico próximo ao 772-918,,-22.9671,-43.2199,0
101200,Rua Jardim Botânico próximo ao 728,,-22.96597,-43.21898,0
101201,Rua Jardim Botânico próximo ao 680,,-22.96495,-43.2181,0
101202,Rua Jardim Botânico próximo ao 534,,-22.96218,-43.21546,0
101203,Rua Jardim Botânico próximo ao 416,,-22.96135,-43.21315,0
101204,Rua Jardim Botânico próximo ao 296-328,,-22.96104,-43.21032,0
101205,Rua Jardim Botânico próximo ao 176,,-22.96068,-43.20719,0
101206,Rua Jardim Botânico próximo ao 01-65,,-22.96036,-43.20456,0
101209,BRS 2-3 - Rua Voluntários da Pátria 435,,-22.955666631049436,-43.19616720237732,0
101211,BRS 1-I - Rua Voluntários da Pátria 305,,-22.954194336127433,-43.19198559755325,0
101212,BRS 2-3 - Rua Voluntários da Pátria 229,,-22.953212228574507,-43.189167580356596,0
101213,Rua Voluntários da Pátria próximo ao 175-179,,-22.95261,-43.18764,0
101214,BRS 2-3 - Rua Voluntários da Pátria 127,,-22.95193493972952,-43.185605626983644,0
101215,BRS 1-I - Rua Voluntários da Pátria 57,,-22.951199518056182,-43.18359609325408,0
101218,Avenida Rui Barbosa próximo ao 880,,-22.94265,-43.1769,0
101219,Avenida Rui Barbosa próximo ao 716,,-22.94243,-43.17398,0
101220,Avenida Rui Barbosa próximo ao 480,,-22.94127,-43.17236,0
101221,Avenida Rui Barbosa próximo ao 260,,-22.93961,-43.17102,0
101222,Praia do Flamengo próximo ao 314,,-22.93549,-43.17401,0
101223,Praia do Flamengo próximo ao 200,,-22.93267,-43.17431,0
101225,Praia do Flamengo próximo ao 151,,-22.9269,-43.17318,0
101226,Praia do Flamengo próximo ao 3869-4031,,-22.92495,-43.17257,0
101227,Praia do Flamengo próximo ao 3727-3867,,-22.92272,-43.17225,0
101228,Avenida Beira Mar,,-22.9195,-43.17475,0
101229,Avenida Beira Mar próximo ao 4700,,-22.91561,-43.17502,0
101230,Avenida Beira Mar próximo ao 2139-2241,,-22.91217,-43.17299,0
101236,Rua Ministro Viveiros de Castro próximo ao 90,,-22.96418,-43.17721,0
101237,Rua Ministro Viveiros de Castro próximo ao 122,,-22.9646,-43.17813,0
101238,Rua Rodolfo Dantas próximo ao 428-500,,-22.96493,-43.17957,0
101239,Rua Tonelero próximo ao 146-154,,-22.96603,-43.18415,0
101240,Rua Tonelero próximo ao 236-240,,-22.9676,-43.18724,0
101241,Rua Tonelero próximo ao 316-320,,-22.96828,-43.18842,0
101242,Rua Pompeu Loureiro próximo ao 28-30,,-22.9727,-43.19217,0
101243,Rua Pompeu Loureiro próximo ao 126,,-22.97528,-43.19346,0
101245,Avenida Epitácio Pessoa próximo ao 2530,,-22.97573,-43.19847,0
101246,Avenida Epitácio Pessoa próximo ao 2900,,-22.97311,-43.20200,0
101247,Avenida Epitácio Pessoa próximo ao 3400,,-22.97387,-43.20619,0
101248,Avenida Epitácio Pessoa próximo ao 3714,,-22.97296,-43.20795,0
101249,Avenida Epitácio Pessoa próximo ao 3932-4000,,-22.97167,-43.20766,0
101250,Avenida Epitácio Pessoa próximo ao 4180-4254,,-22.96987,-43.2059,0
101251,Avenida Epitácio Pessoa próximo ao 4866,,-22.96496,-43.20352,0
101252,Avenida Paulo de Frontin próximo ao 763,,-22.93145,-43.20881,0
101253,Avenida Paulo de Frontin próximo ao 699,,-22.92961,-43.20896,0
101254,Avenida Paulo de Frontin próximo ao 631,,-22.92773,-43.2093,0
101255,Avenida Paulo de Frontin próximo ao 549,,-22.92582,-43.20942,0
101256,Avenida Paulo de Frontin próximo ao 497,,-22.92400,-43.20952,0
101257,Avenida Paulo de Frontin próximo ao 451,,-22.92284,-43.20959,0
101258,Avenida Paulo de Frontin próximo ao 321,,-22.91943,-43.20979,0
101259,Avenida Paulo de Frontin próximo ao 269,,-22.91797,-43.20987,0
101260,Avenida Francisco Bicalho próximo ao 937-1127,,-22.9073,-43.20948,0
101261,Avenida Francisco Bicalho próximo ao 239-501,,-22.90082,-43.20973,0
101262,Rua Ricardo Machado próximo ao 44,,-22.88976,-43.22936,0
101263,Avenida Ayrton Senna próximo ao 233,,-23.00899,-43.36604,0
101264,Avenida Ayrton Senna próximo ao 132,,-23.00438,-43.36596,0
101265,Avenida das Américas próximo ao 4390-4578,,-22.99939,-43.35747,0
101266,Avenida das Américas próximo ao 1840,,-22.99945,-43.36245,0
101267,Avenida Ayrton Senna próximo ao 2000,,-22.9937,-43.36547,0
101268,Avenida Ayrton Senna próximo ao 220,,-22.9916,-43.36544,0
101269,Avenida Ayrton Senna próximo ao 2665,,-22.98767,-43.36538,0
101270,Avenida Ayrton Senna próximo ao 9413-9365,,-22.98431,-43.3652,0
101271,Avenida Ayrton Senna próximo ao 340,,-22.97011,-43.35975,0
101273,Avenida Ayrton Senna próximo ao 4894,,-22.95792,-43.35666,0
101274,Rua André Rocha próximo ao 1324-1368,,-22.92786,-43.37261,0
101275,Rua André Rocha próximo ao 1046-1072,,-22.92552,-43.37064,0
101276,Estrada do Tindiba próximo ao 2030,,-22.92345,-43.37219,0
101277,Rua Cândido Benício-oposto Lgo. do Tanque,,-22.91509,-43.36059,0
101278,Rua Cândido Benício próximo ao 3815,,-22.91355,-43.36042,0
101279,Rua Cândido Benício próximo ao 3804-3868,,-22.91306,-43.36032,0
101280,Rua Cândido Benício 3650,,-22.91176,-43.36024,0
101281,Rua Cândido Benício, Vila Olimpica Mato Alto,,-22.907336133444563,-43.35786276876925,0
101283,Rua Cândido Benício, 2411,,-22.901800747504222,-43.35492616545545,0
101284,Ponto Terminal Rua Cândido Benício próximo ao 1761-1809,,-22.89755,-43.35185,0
101285,Rua Cândido Benício, 1551,,-22.89565,-43.35029,0
101287,Rua Cândido Benício próximo ao 886,,-22.89039,-43.34715,0
101288,Rua Cândido Benício, 613- Igreja de Cristo,,-22.88828848314062,-43.34561565170099,0
101289,Rua Cândido Benício próximo ao 460,,-22.88696,-43.34481,0
101290,Rua Cândido Benício, 217,,-22.88537,-43.34311,0
101291,Rua Padre Manso próximo ao 202,,-22.8779,-43.33715,0
101292,Rua Cícero próximo ao 31-05,,-22.80511,-43.36463,0
101293,Rua Honório Hermeto próximo ao 206a,,-22.80689,-43.36791,0
101294,Rua Comendador Guerra próximo ao 388-428,,-22.80866,-43.3697,0
101295,Rua Comendador Guerra próximo ao 690,,-22.81071,-43.37136,0
101296,Avenida Chrisóstomo Pimentel de Oliveira próximo ao 2683-2883,,-22.81262,-43.37412,0
101297,Avenida Professor Bernardino Rocha próximo ao 123,,-22.8132,-43.37392,0
101298,Avenida Professor Bernardino Rocha próximo ao 712,,-22.81513,-43.37066,0
101299,Avenida Professor Bernardino Rocha próximo ao 733-891,,-22.81724,-43.37039,0
101302,Estrada do Camboatá próximo ao 4775-4865,,-22.82435,-43.37118,0
101303,Estrada do Camboatá próximo ao 4363-4397,,-22.8263,-43.37277,0
101304,Estrada do Camboatá próximo ao 4182-4200,,-22.82776,-43.3717,0
101306,Estrada do Camboatá próximo ao 3775,,-22.83033,-43.37312,0
101307,Estrada do Camboatá próximo ao 3531-3589,,-22.83146,-43.37384,0
101308,Estrada do Camboatá próximo ao 3321,,-22.83127,-43.37579,0
101309,Estrada do Camboatá próximo ao 3155,,-22.83124,-43.37700,0
101310,Estrada do Camboatá próximo ao 1833,,-22.8366,-43.3866,0
101311,Estrada do Camboatá próximo ao 2113,,-22.83686,-43.38385,0
101312,Estrada do Camboatá próximo ao 2325,,-22.83627,-43.38183,0
101313,Rua Marcos de Macedo próximo ao 852-912,,-22.83695,-43.38047,0
101314,Rua Marcos de Macedo próximo ao 794-844,,-22.83759,-43.38,0
101315,Rua Marcos de Macedo próximo ao 194-220,,-22.83932,-43.37875,0
101316,Rua Marcos de Macedo próximo ao 304-314,,-22.84128,-43.37732,0
101318,Rua Carolina Machado próximo ao 1458,,-22.86446,-43.35925,0
101319,Rua Carolina Machado próximo ao 1330,,-22.86548,-43.35622,0
101320,Rua Carolina Machado próximo ao 1210,,-22.86679,-43.35393,0
101321,Rua Carolina Machado próximo ao 1134,,-22.86753,-43.35266,0
101322,Rua Carolina Machado próximo ao 982,,-22.86935,-43.34947,0
101323,Rua Carolina Machado próximo ao 890,,-22.87079,-43.34718,0
101324,Rua Carolina Machado próximo ao 712,,-22.87291,-43.34361,0
101325,Rua Carolina Machado próximo ao 586,,-22.87433,-43.34121,0
101326,Rua Carolina Machado próximo ao 502,,-22.87539,-43.33946,0
101327,Rua Carolina Machado próximo ao 322,,-22.87713,-43.33639,0
101328,Rua Carolina Machado próximo ao 160,,-22.87944,-43.33264,0
101329,Rua Carolina Machado próximo ao 36,,-22.88114,-43.32982,0
101330,Avenida Dom Hélder Câmara próximo ao 10047,,-22.88256,-43.32373,0
101331,Avenida Dom Hélder Câmara próximo ao 9880-9908,,-22.88284,-43.3224,0
101332,Avenida Dom Hélder Câmara próximo ao 9675-9685,,-22.8835,-43.32058,0
101333,Avenida Dom Hélder Câmara próximo ao 9329,,-22.88445,-43.31751,0
101334,Avenida Dom Hélder Câmara próximo ao 9211,,-22.88467,-43.31636,0
101335,Avenida Dom Hélder Câmara próximo ao 9021,,-22.88498,-43.31429,0
101336,Avenida Dom Hélder Câmara próximo ao 8751,,-22.88511,-43.31178,0
101337,Avenida Dom Hélder Câmara próximo ao 8551,,-22.88562,-43.30967,0
101338,Avenida Dom Hélder Câmara próximo ao 8191,,-22.88669,-43.30655,0
101339,Avenida Dom Hélder Câmara próximo ao 7843,,-22.88646,-43.30281,0
101340,Avenida Dom Hélder Câmara próximo ao 7497,,-22.88548,-43.30031,0
101341,Rua da Abolição próximo ao 688,,-22.88536,-43.29805,0
101342,Rua da Abolição próximo ao 458,,-22.88715,-43.29698,0
101343,Rua Mario Carpenter próximo ao 826,,-22.88835,-43.29783,0
101344,Rua Mario Carpenter próximo ao 1136-1200,,-22.88987,-43.30091,0
101345,Rua Mario Carpenter próximo ao 1378,,-22.88986,-43.30241,0
101346,Rua Angelina próximo ao 153,,-22.89079,-43.30325,0
101347,Rua Angelina próximo ao 57-75,,-22.89259,-43.30325,0
101348,Rua Angelina próximo ao 3,,-22.89385,-43.30385,0
101349,Não há ponto no local,,-22.89502,-43.30194,0
101350,Não há ponto no local,,-22.89543,-43.29949,0
101351,Rua Goiás oposto ao 38,,-22.89542,-43.29709,0
101355,Rua Arquias Cordeiro, 596,,-22.89788419506078,-43.28222900975228,0
101356,Rua Arquias Cordeiro, 462,,-22.899837629502624,-43.27983443418503,0
101357,Rua Arquias Cordeiro, 368,,-22.901358282213366,-43.278269185180655,0
101358,Rua Arquias Cordeiro, 312,,-22.90239130153553,-43.277148571758275,0
101359,Rua Leopoldo Bulhões entre as ruas Castro Tavares e Diogo Vasconcelos,,-22.87532,-43.25213,0
101360,Rua Eurico Sousa Leão próximo ao 207,,-22.87251,-43.25155,0
101361,BRS 2-3 - Avenida Presidente Vargas lado oposto ao 2560 - Pista Central,,-22.90797,-43.19911,0
101362,BRS 3-4 - Avenida Presidente Vargas em frente ao 1875 - Pista Central,,-22.9059,-43.19298,0
101363,BRS 3-4 - Metrô Presidente Vargas - Pista Central,,-22.90343,-43.18534,0
101364,Avenida Infante Dom Henrique próximo ao 880,,-22.94281,-43.17681,0
101365,Avenida das Nações Unidas próximo ao 426-1102,,-22.94331,-43.1806,0
101367,Avenida das Nações Unidas próximo ao 212-268,,-22.94955,-43.18062,0
101368,Avenida Lauro Sodré próximo ao 193-267,,-22.95498,-43.17835,0
101369,BRS 1-2-3 - Rua Barata Ribeiro 96,,-22.96329704072964,-43.17770023544312,0
101370,BRS 2 - Rua Barata Ribeiro lado oposto ao número 193,,-22.96526744834591,-43.18077014484405,0
101371,BRS 1-3- Rua Barata Ribeiro 344,,-22.967539026575984,-43.18421338161469,0
101372,BRS 2 - Rua Barata Ribeiro 496,,-22.9698989927575,-43.1878054232788,0
101373,BRS 1-3- Rua Barata Ribeiro 678,,-22.973610313101457,-43.19127201223373,0
101374,BRS 2 - Rua Barata Ribeiro 808,,-22.977103448465773,-43.19276463558197,0
101375,BRS 3- Rua Raul Pompéia 131,,-22.9839,-43.1918,0
101376,BRS 1-2-3 - Rua Raul Pompéia lado oposto ao número 12,,-22.98651,-43.19100,0
101377,Rua Enaldo dos Santos Araújo próximo ao 85,,-22.87648,-43.32325,0
101378,Rua Francisco Valle próximo ao 46,,-22.87595,-43.32418,0
101380,Rua Enaldo dos Santos Araújo próximo ao 765,,-22.87524,-43.31689,0
101381,Rua Silva Vale próximo ao 14-108,,-22.87238,-43.31339,0
101382,Rua Silva Vale próximo ao 138-152,,-22.87129,-43.31292,0
101383,Rua Silva Vale próximo ao 303,,-22.87039,-43.3119,0
101384,Rua Silva Vale próximo ao 577,,-22.86911,-43.30944,0
101385,Rua Silva Vale próximo ao 885,,-22.86703,-43.3075,0
101386,Estrada Adhemar Bebiano próximo ao 4606-4694,,-22.86567,-43.30098,0
101387,Estrada Adhemar Bebiano próximo ao 4534-4586,,-22.86555,-43.29975,0
101388,Estrada Adhemar Bebiano próximo ao 4370-4518,,-22.86544,-43.29863,0
101390,Estrada Adhemar Bebiano próximo ao 3886,,-22.86522,-43.29301,0
101391,Estrada Velha da Pavuna próximo ao 3675,,-22.86552,-43.28986,0
101392,Estrada Adhemar Bebiano próximo ao 3378-3420,,-22.8662,-43.28853,0
101393,Estrada Adhemar Bebiano próximo ao 3100-3184,,-22.86739,-43.2868,0
101394,Estrada Adhemar Bebiano próximo ao 2712-2852,,-22.86901,-43.28437,0
101395,Estrada Adhemar Bebiano próximo ao 2632-2678,,-22.87073,-43.28374,0
101396,Rua Teixeira de Macedo próximo ao 60-138,,-22.87217,-43.28277,0
101397,Rua Teixeira de Macedo próximo ao 38-58,,-22.87314,-43.28202,0
101398,Praça Vinte e Quatro de Outubro próximo ao 43,,-22.87317,-43.28138,0
101399,Estrada Adhemar Bebiano próximo ao 2226,,-22.87291,-43.2806,0
101400,Avenida Itaóca próximo ao 2618,,-22.87193,-43.27676,0
101402,Avenida Itaóca próximo ao 2122-2132,,-22.86841,-43.27464,0
101403,Avenida Itaóca próximo ao 1900,,-22.86731,-43.2722,0
101405,Estrada do Timbó próximo ao 126-154,,-22.87019,-43.26847,0
101406,Estrada Adhemar Bebiano próximo ao 798-828,,-22.87247,-43.26835,0
101407,Estrada Adhemar Bebiano próximo ao 459-497,,-22.87422,-43.26674,0
101408,Estrada Adhemar Bebiano próximo ao 257,,-22.87597,-43.2662,0
101409,Estrada Adhemar Bebiano próximo ao 141-177,,-22.87714,-43.26563,0
101410,Avenida Dom Hélder Câmara próximo ao 3013,,-22.87833,-43.26397,0
101411,Avenida Dom Hélder Câmara próximo ao 2834,,-22.87824,-43.26236,0
101412,Avenida Dom Hélder Câmara próximo ao 2440,,-22.88036,-43.2591,0
101414,Avenida Dom Hélder Câmara próximo ao 1862-2056,,-22.88243,-43.25496,0
101415,Avenida Dom Hélder Câmara próximo ao 1149-1227,,-22.88517,-43.25266,0
101416,Avenida Dom Hélder Câmara próximo ao 1325-1375,,-22.88655,-43.25138,0
101417,Avenida Dom Hélder Câmara próximo ao 531,,-22.88995,-43.24451,0
101418,Avenida Dom Hélder Câmara próximo ao 301,,-22.89069,-43.24243,0
101419,Avenida Dom Hélder Câmara próximo ao 35-151,,-22.8916,-43.24102,0
101420,Rua Senador Bernardo Monteiro próximo ao 54,,-22.89406,-43.23986,0
101421,Rua Senador Bernardo Monteiro próximo ao 120,,-22.89556,-43.24011,0
101422,Rua Senador Bernardo Monteiro próximo ao 224,,-22.89788,-43.24049,0
101423,Rua Ana Neri próximo ao 371,,-22.89903,-43.23944,0
101424,Rua Ana Neri próximo ao 49,,-22.89905,-43.23663,0
101426,Rua São Luiz Gonzaga próximo ao 813,,-22.90022,-43.23003,0
101427,Rua São Luiz Gonzaga próximo ao 643,,-22.89977,-43.2284,0
101428,Nao tem placa ou ponto no local.,,-22.89999,-43.2264,0
101429,Largo da Cancela,,-22.90052,-43.22503,0
101430,Avenida do Exército próximo ao 60-62,,-22.90085,-43.2238,0
101431,BRS 4 - Avenida Presidente Vargas 1733,,-22.905593418400052,-43.19135921230316,0
101432,BRS 3-4 - Avenida Presidente Vargas próximo ao 1343,,-22.90325,-43.18432,0
101433,Estrada do Pacuí próximo ao 568-694,,-22.97049,-43.49409,0
101434,Estrada do Pacuí próximo ao 148-150,,-22.97354,-43.49422,0
101435,Estrada do Pacuí próximo ao 01-69,,-22.97578,-43.49438,0
101436,Avenida das Américas próximo ao 15762-15936,,-23.01437,-43.46825,0
101437,Avenida das Américas próximo ao 16016-16400,,-23.01505,-43.47064,0
101438,Avenida das Américas próximo ao 16281,,-23.01551,-43.46943,0
101439,Avenida das Américas próximo ao 15403,,-23.01485,-43.46683,0
101440,Avenida Glaucio Gil próximo ao 1101-1125,,-23.01443,-43.46136,0
101441,Avenida Glaucio Gil próximo ao 859-915,,-23.0164,-43.4606,0
101442,Avenida Glaucio Gil próximo ao 599-633,,-23.01946,-43.45944,0
101443,Avenida Glaucio Gil próximo ao 505,,-23.02043,-43.45906,0
101444,Avenida Glaucio Gil próximo ao 251-351,,-23.02224,-43.45837,0
101445,Avenida Glaucio Gil próximo ao 53-131,,-23.02398,-43.45768,0
101446,Avenida Lúcio Costa próximo ao 16696,,-23.02525,-43.45875,0
101447,Avenida dos Democráticos próximo ao 1791-1853,,-22.86813,-43.25794,0
101448,Avenida dos Democráticos próximo ao 2019,,-22.86682,-43.25679,0
101449,Rua Miguel Burnier próximo ao 30,,-22.86957,-43.25945,0
101450,Rua Santa Mariana próximo ao 106,,-22.87001,-43.26233,0
101451,Rua Santa Mariana próximo ao 260,,-22.86976,-43.26571,0
101452,Estrada do Timbó próximo ao 31,,-22.86908,-43.2679,0
101453,Avenida Itaóca próximo ao 1440-1460,,-22.86865,-43.26826,0
101454,Avenida Itaóca próximo ao 1462-1500,,-22.86812,-43.26885,0
101455,Avenida Itaóca próximo ao 1713,,-22.86702,-43.27014,0
101456,Avenida Itaóca próximo ao 1858,,-22.86705,-43.27169,0
101457,Avenida Itaóca próximo ao 2134-2142,,-22.8685,-43.27494,0
101458,Avenida Itaóca próximo ao 2358-2500,,-22.87058,-43.27643,0
101459,Avenida Itaóca próximo ao 2860,,-22.87309,-43.27800,0
101460,Estrada Adhemar Bebiano próximo ao 2334-2368,,-22.87191,-43.28125,0
101461,Estrada Adhemar Bebiano próximo ao 2518,,-22.87131,-43.28275,0
101462,Rua Engenho da Rainha próximo ao 15-01,,-22.87011,-43.28392,0
101463,Estrada Adhemar Bebiano próximo ao 3014-3092,,-22.8675,-43.28577,0
101464,Estrada Adhemar Bebiano próximo ao 3422-3482,,-22.86596,-43.28859,0
101465,Estrada Adhemar Bebiano próximo ao 3558,,-22.86542,-43.28967,0
101466,Estrada Adhemar Bebiano próximo ao 3778-3848,,-22.86536,-43.2921,0
101467,Estrada Adhemar Bebiano próximo ao 4010-4092,,-22.86506,-43.29439,0
101468,Estrada Adhemar Bebiano próximo ao 4182-4230,,-22.86531,-43.29606,0
101470,Estrada Adhemar Bebiano próximo ao 1888-1964,,-22.87392,-43.27832,0
101471,Estrada Adhemar Bebiano próximo ao 1600,,-22.87343,-43.27555,0
101473,Estrada Adhemar Bebiano próximo ao 900-920,,-22.87212,-43.26918,0
101474,Estrada do Timbó próximo ao 317,,-22.87228,-43.26798,0
101475,Estrada do Timbó próximo ao 135,,-22.87034,-43.26825,0
101476,Rua Santa Mariana próximo ao 382-400,,-22.86992,-43.2675,0
101477,Rua Santa Mariana próximo ao 210,,-22.86998,-43.26437,0
101478,Rua Santa Mariana próximo ao 30,,-22.87003,-43.26114,0
101479,Avenida dos Democráticos próximo ao 1616,,-22.87023,-43.25854,0
101480,Avenida dos Democráticos próximo ao 1046-1086,,-22.87343,-43.25819,0
101481,Avenida dos Democráticos próximo ao 870-878,,-22.87637,-43.25694,0
101484,Avenida dos Democráticos próximo ao 01-45,,-22.88264,-43.25405,0
101485,Avenida Tenente Coronel Muniz de Aragão próximo ao 102-104,,-22.94808,-43.34042,0
101486,Avenida Tenente Coronel Muniz de Aragão próximo ao 522-562,,-22.95151,-43.34278,0
101487,Avenida Tenente Coronel Muniz de Aragão próximo ao 800,,-22.95295,-43.34412,0
101489,Avenida Tenente Coronel Muniz de Aragão próximo ao 1132-1156,,-22.95439,-43.34918,0
101490,Rua Cerqueira Daltro próximo ao 01-43,,-22.8818,-43.32456,0
101491,Rua Cerqueira Daltro próximo ao 287-297,,-22.88058,-43.32313,0
101492,Rua Florentina próximo ao 140,,-22.87869,-43.32326,0
101493,Rua Itamarati próximo ao 254,,-22.87774,-43.3268,0
101494,Rua Miguel Rangel próximo ao 422,,-22.87782,-43.32906,0
101495,Rua Borneo próximo ao 384,,-22.87903,-43.33149,0
101496,Rua Carvalho de Souza, 164,,-22.87700,-43.33411,0
101497,Rua Leopoldino de Oliveira, 48,,-22.865392816360373,-43.335379577632466,0
101498,Rua Domingos Fernandes próximo ao 30,,-22.86539,-43.33924,0
101499,Rua Domingos Fernandes próximo ao 152,,-22.86612,-43.34023,0
101500,Rua Conselheiro Galvão, oposto ao 348,,-22.866296135605737,-43.34173122453688,0
101501,Rua Conselheiro Galvão 496,,-22.8637,-43.34377,0
101502,Rua Conselheiro Galvão 582,,-22.86208,-43.34489,0
101503,Rua Conselheiro Galvão 684,,-22.860471218952902,-43.34654037913324,0
101505,Rua Conselheiro Galvão 828,,-22.85796,-43.34862,0
101506,Rua Conselheiro Galvão oposto ao 936,,-22.85603255879748,-43.35042463558198,0
101507,Estrada do Barro Vermelho próximo ao 17,,-22.85466,-43.35038,0
101508,Rua das Turquezas próximo ao 438-440,,-22.85202,-43.35401,0
101509,Rua das Safiras próximo ao 160,,-22.85089,-43.35532,0
101510,Rua das Safiras próximo ao 216-234,,-22.84957,-43.35684,0
101511,Rua Ururaí próximo ao 1470,,-22.84699,-43.35729,0
101512,Rua Ururaí próximo ao 556-562,,-22.84038,-43.35605,0
101513,Rua Ururaí próximo ao 93-103,,-22.83851,-43.35092,0
101514,Avenida dos Italianos próximo ao 1187-1219,,-22.83744,-43.34832,0
101515,Avenida dos Italianos próximo ao 1257-1271,,-22.83597,-43.34756,0
101516,Avenida dos Italianos próximo ao 1333-1355,,-22.83409,-43.34671,0
101517,Avenida dos Italianos próximo ao 1411-1447,,-22.83214,-43.34601,0
101518,Rua Cajurana próximo ao 51-61,,-22.83165,-43.34788,0
101519,Estrada São Pedro de Alcântara próximo ao 214-284,,-22.85512,-43.38711,0
101520,Estrada Marechal Alencastro próximo ao 7878-7910,,-22.85402,-43.39005,0
101521,Estrada Marechal Alencastro próximo ao 7145-7353,,-22.85151,-43.39353,0
101522,Estrada Marechal Alencastro próximo ao 7220-7614,,-22.84896,-43.39555,0
101523,Estrada Marechal Alencastro próximo ao 6518-6660,,-22.84321,-43.39787,0
101524,Rua Japoara próximo ao 678,,-22.84068,-43.4052,0
101526,Rua Araçá próximo ao 782-854,,-22.84021,-43.40583,0
101527,Rua Cracituba próximo ao 81-129,,-22.83926,-43.40661,0
101529,Avenida Cipriano Barata próximo ao 514-524,,-22.83414,-43.40712,0
101530,Avenida Cipriano Barata próximo ao 190,,-22.83347,-43.40463,0
101531,Rua Tecobe próximo ao 10,,-22.89477,-43.43707,0
101532,Praça Apuã próximo ao 200-201,,-22.89672,-43.43891,0
101533,Rua Tecobe próximo ao 510,,-22.89809,-43.44051,0
101534,Rua Ocaibi próximo ao 342-416,,-22.8977,-43.4416,0
101536,Rua do Governo próximo ao 1206,,-22.89554,-43.44326,0
101537,Rua do Governo próximo ao 994-1002,,-22.89416,-43.44195,0
101538,Rua do Governo próximo ao 800-820,,-22.89273,-43.44057,0
101539,Rua do Governo próximo ao 464-502,,-22.89081,-43.43877,0
101540,Rua do Governo próximo ao 216,,-22.88887,-43.43692,0
101541,Rua Limites próximo ao 1227,,-22.88681,-43.43589,0
101542,Rua Limites próximo ao 1141,,-22.88563,-43.43667,0
101543,Rua Limites próximo ao 1005,,-22.88463,-43.43754,0
101544,Rua Limites próximo ao 601-679,,-22.8821,-43.43984,0
101545,Vila Quatrocentos e Cinquenta e Um próximo ao 451,,-22.88063,-43.44114,0
101546,Estrada do Realengo próximo ao 354,,-22.87924,-43.44491,0
101547,Rua Francisco Real próximo ao 06-40,,-22.87721,-43.44606,0
101548,Avenida de Santa Cruz próximo ao 1976,,-22.87803,-43.44195,0
101549,Avenida de Santa Cruz próximo ao 1791-1833,,-22.87811,-43.44081,0
101550,Avenida de Santa Cruz próximo ao 1678-1710,,-22.87813,-43.43936,0
101551,Avenida de Santa Cruz próximo ao 1490,,-22.87817,-43.43761,0
101552,Avenida de Santa Cruz próximo ao 1336,,-22.87802,-43.43604,0
101553,Avenida de Santa Cruz próximo ao 1132,,-22.87808,-43.43414,0
101554,Avenida de Santa Cruz próximo ao 550,,-22.87864,-43.42896,0
101555,Rua Marechal Soares de Andréia próximo ao 184-236,,-22.87823,-43.42836,0
101556,Rua Marechal Abreu Lima próximo ao 174-220,,-22.87249,-43.42997,0
101557,Rua Marechal Abreu Lima próximo ao 526-654,,-22.86938,-43.43067,0
101558,Estrada da Água Branca próximo ao 1840,,-22.86885,-43.43343,0
101559,Estrada da Água Branca próximo ao 2078,,-22.86903,-43.43591,0
101560,Rua Curitiba próximo ao 47,,-22.86895,-43.43755,0
101561,Estrada da Água Branca próximo ao 2388-2416,,-22.86885,-43.43928,0
101562,Estrada da Água Branca próximo ao 2584-2586,,-22.86876,-43.44095,0
101563,Estrada da Água Branca próximo ao 2732,,-22.86869,-43.44227,0
101564,Rua General Jacques Ouriques próximo ao 222-234,,-22.86853,-43.44553,0
101565,Rua General Jacques Ouriques próximo ao 306-384,,-22.86845,-43.4469,0
101566,Rua Baronesa próximo ao 693-705,,-22.89813,-43.35021,0
101567,Rua Pedro Téles próximo ao 552,,-22.89764,-43.34896,0
101568,Rua Pedro Téles próximo ao 460-470,,-22.89694,-43.34835,0
101569,Rua Cândido Benício próximo ao 1629-1671,,-22.89604,-43.35101,0
101570,Rua Cândido Benício próximo ao 3802,,-22.91304,-43.36047,0
101571,Avenida Nelson Cardoso próximo ao 300,,-22.91783,-43.36438,0
101572,Rua Cerqueira Daltro próximo ao 427,,-22.87948,-43.32181,0
101573,Rua Cerqueira Daltro próximo ao 703,,-22.87778,-43.31984,0
101574,Rua Gáspar Viana próximo ao 15-39,,-22.87671,-43.32068,0
101575,Rua Francisco Vale próximo ao 24,,-22.87699,-43.32421,0
101576,Rua Iguaçu próximo ao 366-402,,-22.87484,-43.32536,0
101577,Avenida Automóvel Clube próximo ao 986-996,,-22.86631,-43.3042,0
101578,Avenida Automóvel Clube próximo ao 980-984,,-22.86697,-43.30148,0
101579,Avenida Automóvel Clube próximo ao 970,,-22.86794,-43.29788,0
101580,Avenida Automóvel Clube próximo ao 956-958,,-22.86897,-43.29452,0
101581,Avenida Automóvel Clube próximo ao 948-954,,-22.86983,-43.29191,0
101582,Avenida Automóvel Clube próximo ao 4029-4030,,-22.87078,-43.28993,0
101583,RJ-083 próximo ao 2091,,-22.87412,-43.28674,0
